stop_name,stop_id,stop_desc,stop_lat,stop_lon
10th District (Al Hay Al Asher) - Nasr City,averts.hockey.woof,,30.04905,31.378641
10th District (Al Hay Al Asher) - Nasr City,fermented.roosters.slacker,,30.048353,31.379913
10th District (Al Hay Al Asher) - Nasr City,gravitate.singled.plus,,30.049362,31.379839
10th District (Al Hay Al Asher) - Nasr City,iterative.sloping.down,,30.048904,31.37905
10th District (Al Hay Al Asher) - Nasr City,repelled.face.stubble,,30.049112,31.379221
10th District (Al Hay Al Asher) - Nasr City,tinny.regulator.flies,,30.048347,31.380026
10th of Ramadan (Asher Men Ramadan) Station,dabbled.outboard.thinking,,30.154938,31.408575
10th of Ramadan (Asher Men Ramadan) Station,emeralds.hooks.lifestyle,,30.152508,31.409582
10th of Ramadan (Asher Men Ramadan) Station,opened.sulk.motorist,,30.155607,31.409208
10th of Ramadan (Asher Men Ramadan) Station,passage.loaning.camera,,30.15377,31.409103
10th of Ramadan (Asher Men Ramadan) Station,timer.nursery.tingled,,30.153675,31.410835
10th of Ramadan (Asher Men Ramadan) Station,wimp.formation.tuck,,30.154081,31.407724
10th of Ramadan Station - Ismailiya Desert Road,shred.trickster.snuggle,,30.147972,31.420414
10th of Ramadan Station - Ismailiya Desert Road,splashes.cooking.nowadays,,30.148579,31.422678
10th of Ramadan Station - Ismailiya Desert Road,stole.makeup.giggles,,30.147804,31.420515
10th of Ramadan Station - Ismailiya Desert Road,tonal.shopper.campus,,30.14778,31.420828
15th of May Bus Station,awestruck.channel.january,,29.810863,31.378103
15th of May City Authority,gifts.aliens.stud,,29.826609,31.36399
15th of May City Authority,taxpayers.reject.hugs,,29.826471,31.364233
15th of May School - Mostorod,punctual.hurls.crumble,,30.132105,31.282913
15th of May Youth Forum,police.watchdogs.cucumber,,29.831581,31.37835
15th of May Youth Forum,view.epic.access,,29.83146,31.378393
1st Settlement City Authority,army.slug.commenced,,30.052122,31.448147
26th of July Mehwar Exit -  Ring Road,kebab.corrupted.slipping,,30.063845,31.17437
3rd Settlement (Tagamoa Thaleth),gymnasium.cuts.bucket,,29.984001,31.44291
4th Neighbourhood Council - 15th of May,lamplight.withdraw.vent,,29.837914,31.376825
4th Neighbourhood Council - 15th of May,truth.pairings.acids,,29.838324,31.377798
5th Settlement City Authority,moment.tearfully.exulted,,29.993052,31.417614
6th Of October City Authority,guidebook.mango.stiletto,6th of October City Authority 'Westbound',29.98265,30.952312
6th of October Garden - Helwan,autumn.hopes.juggler,,29.840557,31.329374
6th of October Garden - Helwan,mission.stove.convinces,,29.840384,31.32946
7th District Entrance - 6th of October,breathing.tricky.pinches,District 7 Entrance '9pm',29.979986,30.94955
7th District Station (Hay Al Sabea) - Nasr City,bleat.clan.surfacing,,30.041986,31.329441
7th District Ststion (Hay Al Sabea) - Nasr City,fidgeting.lurching.photocopy,,30.042004,31.329632
8th District (Nasr City),monk.committee.ripe,,30.061419,31.380318
8th District (Nasr City),sprays.otherwise.producing,,30.058132,31.379868
8th District - Al Shorouq,broadens.stolen.exhaled,,30.163885,31.605515
8th District - Al Shorouq,yoga.startles.fits,,30.163864,31.605375
Aba Al Kassem Mosque - Autostrad,plotter.disposing.flashback,,29.932928,31.288082
Aba Al Kassem Mosque - Autostrad,rejoiced.flatten.waffle,,29.933023,31.288227
Abageyya Bridge,breed.dimension.streak,,30.01218,31.267265
Abageyya Bus Station,handbag.butternut.permanent,,30.02391,31.263676
Abageyya Bus Station,lecturers.lyrics.response,,30.023933,31.263577
Abbas Al Akkad - Mostafa Al Nahas,craftsman.printouts.facelift,,30.053728,31.338633
Abbas Al Akkad - Mostafa Al Nahas,order.cope.bypassed,,30.053904,31.338608
Abbaseya Bridge - Start,claim.sizzled.essential,,30.070488,31.28931
Abbaseya Bridge - Start,conforms.refilled.scored,,30.070402,31.28925
Abbaseya Bridge - Start,digs.parsnip.bill,,30.07054,31.289373
Abbaseya Hospital,hopping.towel.acre,,30.071064,31.294222
Abbaseya Hospital,shares.flitting.lingering,,30.070976,31.29467
Abbasseya,depravity.alarm.nuptials,,30.073334,31.284698
Abbasseya,intruders.absorb.puncture,,30.073181,31.28507
Abbasseya,outermost.scratches.lows,,30.07275,31.285551
Abbasseya,sheds.blush.dentures,,30.072866,31.285946
Abbasseya,ulterior.bathtubs.charm,,30.07252,31.28438
Abbasseya Bridge - End,skid.themes.jumbled,,30.075361,31.283716
Abbasseya Hospital,circulate.flasks.plotted,,30.068739,31.29217
Abbasseya Square,cocoons.voices.rigid,,30.073889,31.285383
Abbasseya Square,recline.mandolin.salt,,30.074091,31.285456
Abboud,driftwood.galloped.fact,,30.103725,31.256844
Abboud,fracture.trickling.squad,,30.104753,31.255299
Abboud,pace.liberated.blotches,Abboud 'Eastbound',30.104794,31.255758
Abboud,pedicure.cobbled.flops,,30.106146,31.253862
Abboud,speak.altitude.wonderful,,30.105207,31.255527
Abboud,survive.basic.crafts,Abboud 'Westbound',30.104145,31.253746
Abboud,undercuts.watched.tonsils,,30.103617,31.255857
Abd Al Moneim Riad,automate.spirits.stale,,30.049492,31.231245
Abd Al Moneim Riad,deny.revised.demotion,,30.050043,31.233923
Abd Al Moneim Riad,informal.husky.canyons,,30.05,31.233063
Abd Al Moneim Riad,modifies.silent.scoring,,30.050419,31.23375
Abd Al Moneim Riad,perfected.exit.transcribes,,30.049557,31.234692
Abd Al Moneim Riad,quantity.sunset.cookie,,30.04867,31.232645
Abd Al Moneim Riad,quit.applies.ribcage,,30.050127,31.233873
Abd Al Moneim Riad,scrambles.flukes.spaces,,30.049494,31.231836
Abd Al Moneim Riad,vibe.aunts.shudders,,30.049524,31.234486
Abd El Aziz St - Ataba,finer.coolest.client,,30.050024,31.251093
Abd El Aziz St - Ataba,thunder.reckons.deleting,,30.049429,31.250246
Abdeen,bookcases.message.area,,30.04115,31.245586
Abdel Menaam Reyad Mosque - Nile Courniche,converged.beefed.credit,,29.937511,31.276367
Abdel Menaam Reyad Mosque - Nile Courniche,sank.helm.stupidly,,29.937572,31.276457
Abdo Basha,doses.stammer.slicing,,30.06539,31.27671
Abdo Basha,happy.wizard.panicking,,30.065369,31.276976
Abdullah Al Othaym - Nile Courniche,airtime.liberty.durations,,29.882502,31.289268
Abdullah Al Othaym - Nile Courniche,contain.permanent.youths,,29.88251,31.289392
Abdullah El Refaey,dodging.viewers.infringe,,30.160072,31.355534
Abdullah El Refaey,multiply.dented.bookcases,,30.160095,31.355633
Abo Senna Steps,scrum.overgrown.resist,,30.155146,31.229029
Abo Senna Steps,storybook.blaring.buns,,30.155176,31.229177
Abo Sir Steps - Ring Road,romance.putty.reset,,30.164656,31.388388
Abou Al Farag St- Rod Al Farag St,foiled.conqueror.passports,,30.081596,31.236872
Abou Al Majd Center - Mostorod,birthdays.paves.rocks,,30.126974,31.28783
Abou Al Majd Center - Mostorod,continues.raves.rezoning,,30.12676,31.289162
Abou Al Majd Center - Mostorod,influence.dumplings.vibe,,30.126623,31.289328
Abou Al Majd Center - Mostorod,insulated.outline.ember,,30.126709,31.287874
Abou Al Nomros Police Station,sharpens.throwaway.texts,,29.95806,31.212864
Abou Al Reesh,agrees.query.submits,,30.028622,31.234652
Abou Al Reesh,emporium.palms.sends,,30.029097,31.237198
Abou Al Reesh,hurricane.deferring.ideas,,30.028427,31.236984
Abou Al Reesh,redeemed.mingles.solves,,30.028738,31.23476
Abou Al Reesh,televise.optimally.outwards,,30.028158,31.237354
Abou Wafya Bridge,bordering.sprouting.videos,,30.095621,31.26601
Abou Wafya Bus Station,clockwork.nickname.solid,,30.09778,31.255991
Abou Wafya Bus Station,drivers.event.hexes,,30.097773,31.25611
Abou Wafya Bus Station,dweller.apparatus.tenses,,30.09737,31.255863
Abou Zaabal Bridge,angers.kept.cadet,,30.197258,31.318819
Abou Zaabal Bus Station,sideburns.guests.widely,,30.24936,31.354742
Abu Al Houl - Mansoureyya Rd,directly.truckload.title,,29.97892,31.144003
Abu Al Houl - Mansoureyya Rd,weep.science.throat,,29.978842,31.143768
Abu Al Houl Bus Station,tent.cabs.goodness,,29.977411,31.142803
Abu Bakr Al Sedeeq Mosque - Sheraton,budding.passions.inspected,,30.100943,31.37464
Abu Bakr Al Sediq St - Teraat Al Dakat St,trains.facelift.mixture,,30.10337,31.261
Abu El Numrus,develop.duos.seasick,,29.95958,31.231003
Abu Khater - Matareyya,reheat.tabs.hitters,,30.126125,31.297962
Abu Khater - Matareyya,unspoiled.layered.elder,,30.125807,31.298077
Abu Makarem Mosque - Al Waili,scale.delays.locker,,30.05534,31.279602
Abu Rawwash Bus Station,insurers.comments.pupils,,30.045265,31.095053
Abu Rawwash Bus Station,recliner.butternut.rents,,30.045416,31.094893
Abu Rawwash Rd - Al Mansoureyya Rd,ruling.journey.hogs,,30.041054,31.096401
Abu Rawwash Rd - Al Mansoureyya Rd,throwaway.rehearsal.tins,,30.041172,31.096252
Adawy - Nile Courniche,driveways.outfit.scrambles,,29.896675,31.28756
Adawy - Nile Courniche,exonerate.subject.lived,,29.89672,31.28768
Aden St - Sudan St,cashiers.triangles.hesitate,,30.051468,31.191862
Aden St - Sudan St,unhelpful.spinners.ballots,,30.051453,31.191767
Adidas Steps - Ring Road,automate.scarred.married,,29.983963,31.321728
Adidas Steps - Ring Road,contoured.overdrive.drill,,29.984358,31.321825
Administrative Control Authority - Nozha,drama.cocktail.funky,,30.07768,31.33983
Administrative Control Authority - Nozha,otherwise.circus.slider,,30.077723,31.339565
Adminstration Of Mobilization And Recruitment,nags.putter.clocked,,30.106354,31.324015
Adminstration Of Mobilization And Recruitment,weaved.fuel.wove,,30.106451,31.324131
Afendina Dome - Manshiyat Nasser,browsers.bulb.lifeguard,,30.043367,31.277294
Afendina Dome - Manshiyat Nasser,twins.comically.skater,,30.043438,31.277155
Agouza Corniche,damp.flats.decorated,,30.046488,31.218107
Agouza Corniche,sublime.coil.strides,,30.04654,31.218218
Agouza Police Hospital,birdcage.assembles.forms,,30.052305,31.216717
Agouza Police Hospital,furniture.cultivation.kidney,,30.052334,31.216871
Agricultural Center - Badrasheen,strictest.walking.nicer,,29.851421,31.247364
Agricultural Research Center - Cairo University,eminent.downs.judges,,30.021055,31.211437
Agricultural Research Center - Cairo University,prune.liver.decompose,,30.021217,31.211544
Ahli Bank - Al Nadi Al Gedeed St,tells.motive.absent,,29.969296,31.271973
Ahli Kuwaiti Bank - Sudan St,burden.pylon.ironclad,,30.048325,31.192566
Ahli Kuwaiti Bank - Sudan St,digs.intersect.spoiled,,30.048128,31.192492
Ahmed Al Sallab Mall,derailed.cobras.dash,,30.052265,31.324337
Ahmed Al Sallab Mall,soup.renovated.upholding,,30.052038,31.32441
Ahmed Badawi Street,casino.composes.commutes,,30.066303,31.245766
Ahmed Badawi Street,lifetimes.sinkhole.speaker,,30.066317,31.245083
Ahmed Esmat St - Ain Shams St,doubt.joins.remodels,,30.12915,31.32153
Ahmed Esmat St - Ain Shams St,pepper.trinkets.fancied,,30.129154,31.321438
Ahmed Fakhry - Autostrad,admits.tentacles.sporting,,30.069698,31.348845
Ahmed Fakhry - Autostrad,beard.helpless.presuming,,30.06982,31.348053
Ahmed Fakhry - Autostrad,smuggled.spearhead.shovels,,30.070026,31.348366
Ahmed Galal Military Passage,trucks.pigtails.booklet,Ahmed Galal ?Southbound,30.141197,31.436735
Ahmed Galal Military Passage,valley.inch.houseboat,Ahmed Galal Northbound,30.141253,31.436924
Ahmed Helmy,dialects.takeover.custodial,,30.064966,31.247765
Ahmed Helmy,duration.driveways.bristle,,30.064444,31.245775
Ahmed Helmy,explain.massaged.rabble,,30.065004,31.24655
Ahmed Helmy,juicy.beaks.twins,,30.064476,31.244982
Ahmed Helmy,spent.crowns.objective,,30.06495,31.244743
Ahmed Helmy,washing.weekends.handlebar,,30.06488,31.24488
Ahmed Khalil St - Mogamaa Al Masanae St,toast.nourished.slack,,30.10649,31.266975
Ahmed Maher Teaching Hospital,abode.author.passively,,30.039745,31.250437
Ahmed Maher Teaching Hospital,march.secret.blissful,,30.039818,31.250237
Ahmed Oraby - Ramses,lengthen.scoping.lately,,30.057432,31.241405
Ahmed Oraby - Ramses,sample.flow.stolen,,30.057005,31.242458
Ahmed Oraby - Ramses,turned.coverings.postcard,,30.057323,31.241535
Ahmed Oraby - Ramses,yours.refusals.panics,,30.057491,31.241371
Ahmed Oraby Square - Obour,paddock.continues.dollars,,30.2254,31.457321
Ahmed Oraby Square - Obour,unloaded.flaunting.patting,,30.223509,31.458424
Ahmed Oraby Street,cardinal.elephant.vowel,,30.060703,31.24266
Ahmed Oraby Street,misted.agreeable.centuries,,30.060907,31.242842
Ahmed Saaed Bridge - End,rocky.loving.paddocks,,30.07067,31.272882
Ahmed Saaed Bridge - Start,wool.today.shun,,30.070751,31.272835
Ahmed Saeed St - Abaseyya St,knees.tornado.wings,,30.06404,31.272823
Ahram School for Basic Education,ocean.winds.earth,,29.988497,31.112795
Aida - Ahmed Helmy St,relies.press.archives,,30.08503,31.255957
Aida - Ahmed Helmy St,strikers.hips.lively,,30.084835,31.25583
Ain Helwan Metro Station,duplicate.juices.tutored,,29.862497,31.32542
Ain Helwan Metro Station,laughs.tech.hourglass,,29.862564,31.325506
Ain Shams Metro,calendars.surgical.definite,,30.130777,31.319643
Ain Shams University,deflated.bath.animates,,30.075768,31.287046
Ain Shams University,faced.appoints.herds,,30.075634,31.287308
Ain Shams University - Obour,drumbeat.assures.awoke,,30.204412,31.45731
Ain Shams University - Obour,incisions.exile.gravitate,,30.204477,31.457481
Ain Shams University Dorms,rentals.last.generally,,30.077845,31.28954
Ain Shams University Dorms,warping.nerd.unhappy,,30.077913,31.289207
Air Force Hospital,trickster.scoring.sugar,,30.01642,31.433527
Air Force Hospital,vitals.transmits.hothouse,,30.016115,31.43341
Air Force Hospital - Al Waili,object.wake.beak,,30.062466,31.273512
Akhnaton School,boils.costly.attitudes,,30.006256,31.414314
Akhnaton School,remarking.locals.politics,,30.006426,31.414362
Al Aalam Specialized Hospital,mailboxes.bound.costs,,30.066193,31.191797
Al Aalam Specialized Hospital,motivates.quail.mermaids,,30.066238,31.191692
Al Abageyya Entrance - Autostrad,punctual.across.helpers,,30.021492,31.263771
Al Abageyya Entrance - Autostrad,refusals.trustees.proven,,30.021446,31.263645
Al Abageyya Entrance - Autostrad,rinsed.treat.zaps,,30.02143,31.263554
Al Abaseyya Institute for Computers,implore.voucher.brightens,,30.141941,31.322317
Al Abeet Steps - Ring Road,lyricist.pursuit.crusaders,,30.066568,31.174341
Al Abeet Steps - Ring Road,taps.race.aimlessly,,30.066582,31.174503
Al Abtal City - 15th of May,budgeted.plea.foggy,,29.82824,31.354675
Al Abtal Club - Ein Al Seera,outhouse.howler.unwanted,,30.016285,31.25047
Al Abtal Club - Ein Al Seera,players.lifeguard.musician,,30.016209,31.250294
Al Abyad Automotive - King Faisal St,hazelnuts.abstracts.proven,,30.013403,31.198666
Al Abyad Automotive - King Faisal St,strictest.scaffold.snatched,,30.01348,31.198534
Al Agouza Hospital,diagram.swimmer.regarding,,30.056046,31.216007
Al Agouza Hospital,gurgling.consumed.purple,,30.055784,31.215935
Al Agouza Steps - October Bridge,agency.promoted.groom,,30.048407,31.218903
Al Agouza Steps - October Bridge,protester.park.carefully,,30.048462,31.218576
Al Ahli Bank - Courniche Bolak,deal.ties.wand,,30.062214,31.227352
Al Ahli Bank - Courniche Bolak,starlight.seats.ventures,,30.062159,31.227253
Al Ahli Bank - King Faisal St,grumbling.digesting.picturing,,30.006664,31.18118
Al Ahli Bank - King Faisal St,hides.keen.prancing,,30.006525,31.181217
Al Ahly Sporting Club,blown.croaking.finally,,30.071419,31.354548
Al Ahly Sporting Club,renewals.irritable.squeaks,,30.071619,31.3545
Al Alg Exit - Ring Road,cycled.gained.juicy,,30.165888,31.359163
Al Amir Steps - Ring Road,prune.remember.sofas,,30.163588,31.318558
Al Amir Steps - Ring Road,remarried.skim.feelers,,30.163439,31.31855
Al Andalous Specialized Hospital,recall.everybody.refrained,,30.04051,31.329748
Al Ansar School - Gesr Al Suez,reheat.bitter.neater,,30.117926,31.33605
Al Areesh - Haram Street,boring.similar.salaried,,29.99377,31.160122
Al Areesh - Haram Street,disclose.outs.reheat,,29.99386,31.15995
Al Atraby St - Gesr Al Suez,flats.shrugging.visual,,30.116325,31.336695
Al Atraby St - Gesr Al Suez,witty.zooms.euphoric,,30.116423,31.336401
Al Azhar Park Gate,album.migrants.headings,,30.040054,31.266449
Al Azhar Park Gate,jabs.puppets.trombone,,30.040133,31.266335
Al Azhar Pedestrian Bridge,songbird.storms.touchy,,30.06076,31.307467
Al Azhar University - North,mainframe.icebergs.stormed,,30.062645,31.31107
Al Azhar University - North,sleeping.bandwagon.talent,,30.062895,31.310915
Al Azhar University - South,extend.padding.portfolio,,30.051044,31.320545
Al Azhar University Hospital - Nasr City,breakaway.resurgent.averages,,30.054197,31.31215
Al Azhar University Hospital - Nasr City,steam.kilt.limbs,,30.054237,31.311935
Al Aziz Bellah - Gesr Al Suez,allowable.task.spouse,,30.099646,31.315746
Al Aziz Bellah - Gesr Al Suez,pheasants.vacancies.recur,,30.099487,31.315928
Al Aziz Bellah St - Selim Al Awwal St,torched.minder.rejoins,,30.102497,31.310328
Al Azizeya Bridge,maddening.tugging.whites,,29.879017,31.246502
Al Azizeya Bridge,scoping.cheeses.nightcap,,29.879131,31.247019
Al Bahr Al Aazam Exit - End (Moneeb),mediate.agreement.plunge,,29.989006,31.215307
Al Bahr Al Aazam Exit - Start,flashback.obscuring.lottery,,29.98712,31.218306
Al Bahs Al Genaee - Sherket Al Maadi St,eternity.headstone.haunts,,29.985086,31.283495
Al Bahs Al Genaee - Sherket Al Maadi St,existence.shapes.resists,,29.985058,31.283352
Al Baloun Theatre - Agouza,airstrip.reliving.buildings,,30.059023,31.215128
Al Baloun Theatre - Agouza,subplot.arch.goes,,30.059204,31.215204
Al Banat Mosque Bus Station,bless.hazel.comforted,,30.046577,31.254023
Al Banat Mosque Bus Station,buffoon.icebergs.bids,,30.046368,31.253794
Al Banhawi Bus Station,indirect.dispensed.brightens,,30.057482,31.260452
Al Banhawi Bus Station,warriors.vitals.coping,,30.057438,31.260529
Al Banhawi Bus Station,weddings.workflow.examples,,30.05738,31.26046
Al Barageel Entrance,nipping.restores.dodges,,30.06439,31.16148
Al Barageel Steps - Ring Road,deriving.pump.floating,,30.076935,31.179018
Al Barageel Steps - Ring Road,luck.stunts.rewrites,,30.077274,31.179132
Al Basateen Al Emomy,bracing.stadium.education,,29.989283,31.267546
Al Basrawy Imbaba Bus Station,letters.quietest.bouncing,,30.083326,31.2064
Al Batal Ahmed - Saheb Al Diwan,fried.snuck.reason,,30.216969,31.354765
Al Behiry Stone - Basateen,activity.pushover.coach,,29.988531,31.271383
Al Behiry Stone - Basateen,steady.nurses.pelted,,29.988571,31.271852
Al Bibany St,option.handed.shudders,,30.034868,31.25552
Al Bibany St,steep.whirlpool.edits,,30.034882,31.255587
Al Bohi Imbaba Bus Station,active.hindered.reclined,,30.08783,31.212393
Al Bohi Imbaba Bus Station,erupts.threaten.wrenching,,30.087969,31.212423
Al Bosta Steps - Ring Road,mural.sonic.rainfall,,30.11304,31.203129
Al Central St - Abou Al Farag St,meatball.hence.flocking,,30.074373,31.23372
Al Checheeny St,conductor.desktops.loopholes,,29.998724,31.142818
Al Dandarawy - Basateen Rd,concerned.timeless.skewed,,29.998434,31.265287
Al Darb Al Ahmar Police Station,partners.golden.grouping,,30.038025,31.251856
Al Darrasa Bus Station,behave.tickles.duplicate,,30.047348,31.270027
Al Dawagen - Maadi,embedded.line.incensed,,29.879644,31.28941
Al Dawagen - Maadi,squirted.flaked.shakes,El Dawajen - Maadi 'Southbound',29.87965,31.289314
Al Demerdash Hospital,adapt.toothpick.repelled,,30.071589,31.27647
Al Demerdash Hospital,sketches.adding.detonated,,30.07151,31.276516
Al Demerdash Metro Station,data.duos.shirtless,,30.076593,31.277029
Al Demerdash Metro Station,foil.straying.elsewhere,,30.077461,31.276802
Al Demerdash Metro Station,storybook.modem.suitable,,30.0774,31.276953
Al Dokki Square,kettles.shred.pebbles,,30.038311,31.211502
Al Dokki Square,vision.avoiding.crispier,,30.038116,31.211128
Al Eman Mosque,boomed.tall.intrigued,,30.064728,31.344893
Al Eman Mosque,halt.snips.fidgeting,,30.064705,31.344683
Al Farag Butchery - Magra Al Oyoun,earphones.severe.surround,,30.021412,31.235706
Al Farag Butchery - Magra Al Oyoun,office.wriggled.chambers,,30.021336,31.235683
Al Faragany - Ain Shams St,vans.strictest.gratuity,,30.117764,31.31749
Al Fath Mosque - Mansheyyet Al Gamal St,icebergs.generated.basis,,30.097773,31.249105
Al Fath Mosque - Mansheyyet Al Gamal St,mistaken.riots.skid,,30.09789,31.249075
Al Fath Schools - Abou Al Nomros,loft.survey.contained,,29.964838,31.21103
Al Fath Superjet,airship.plotting.shuttled,,30.046207,31.307924
Al Fath Superjet,folk.power.array,,30.046257,31.308014
Al Fath Superjet,golden.loafing.dimension,,30.04619,31.307695
Al Fath Superjet,quilt.weeps.heeding,,30.046215,31.307783
Al Fayoum Road,denim.fired.cutlets,,29.947035,31.099562
Al Fayrouz Medical Center - Helwan,paramedic.plenty.beakers,,29.84326,31.303904
Al Fayrouz Medical Center - Helwan,repay.weeps.piston,,29.84321,31.303768
Al Fouad Hospital - Abasseya,recruiter.dominate.handicaps,,30.078667,31.277546
Al Gabal Al Asfar - Marg,tucked.browser.jelly,,30.203571,31.355211
Al Galaa Bridge,allow.reliving.swordfish,,30.095953,31.342318
Al Galaa Bridge,deprive.narrates.bandstand,,30.094833,31.342402
Al Galaa Bridge,lasted.apples.bulbs,,30.09476,31.342104
Al Galaa Military Hospital,recipient.mystified.type,,30.099928,31.350761
Al Galaa Military Hospital,report.delays.coasters,,30.10023,31.35057
Al Gamaia Al Sharaia,tall.represent.artichoke,,30.04764,31.31393
Al Gamaleya Youth Center,chart.headstone.printout,,30.050003,31.268854
Al Gamaleya Youth Center,peach.fall.openly,,30.049973,31.268959
Al Garage - Sawah,rant.outbound.stockpile,,30.105597,31.2816
Al Gazareen - Gamal Abd El Nasser St - Warraq,chainsaw.plums.gifts,,30.101063,31.222471
Al Gazareen - Gamal Abd El Nasser St - Warraq,gazes.adverbs.saturate,,30.101206,31.222555
Al Geish Square,gender.movie.arose,,30.062183,31.267786
Al Geish Square,moped.assures.health,,30.062384,31.267963
Al Gezeera - Moqattam,fruitcake.inflates.grows,,30.010698,31.303282
Al Gezeera - Moqattam,stumble.rested.uttering,,30.01081,31.303375
Al Gezira Steps - October Bridge,acid.alone.factoring,,30.04906,31.226988
Al Gezira Steps - October Bridge,chatters.ditching.crockery,,30.049189,31.226954
Al Gomhoreyya - Al Masraf,measure.skinning.nitrogen,,30.175446,31.347479
Al Gomhoreyya - Howd Al Shaikh,material.televise.galaxies,,30.187437,31.351437
Al Habib Mosque - Barageel,measuring.passion.holds,,30.073574,31.169323
Al Hamd Square,infinite.plankton.arrow,,30.001915,31.422941
Al Hamd Square,rocket.bronzer.mothering,,30.002216,31.423113
Al Haq Hospital - Arbean St,duties.stumps.monopoly,,30.133135,31.314157
Al Hawamdeya General Hospital,capacity.cases.according,,29.887955,31.272583
Al Hawamdeya General Hospital,nearly.stag.pylon,,29.887932,31.27242
Al Hawamdeya Traffic Authority,gains.regretted.coupler,,29.905104,31.268637
Al Hawamdeya Traffic Authority,inhabited.palace.braked,,29.905119,31.268744
Al Hawamdeyya Bus Station,advances.wished.sneezing,,29.896235,31.265867
Al Hawamdeyya Bus Station,cares.suggested.unite,,29.896284,31.265852
Al Hayat Islamic School - Marg,decreased.rumbles.tickling,,30.189718,31.351118
Al Hays Pastery - Nozha St,classmate.trailer.vertical,,30.104248,31.343832
Al Hays Pastery - Nozha St,remake.tropic.promotion,,30.104288,31.343609
Al Hegaz Square,airbase.salt.meant,,30.111448,31.345436
Al Hegaz Square,crunching.grad.fetches,,30.111034,31.34553
Al Hegaz Square,mountain.cement.novel,,30.110619,31.346281
Al Helmeya Square - Heliopolis,closes.regime.cabbies,,30.112038,31.316622
Al Helmeya Square - Heliopolis,generated.friends.thrashed,,30.112032,31.316292
Al Helmiya Garden - Gesr Al Suez,fuses.decorate.shutting,,30.108894,31.32707
Al Helmiya Garden - Gesr Al Suez,lays.multiple.magazines,,30.108757,31.327242
Al Hennawy Furniture - Airport Road,fights.waddled.operation,El-Hennawy Furniture 'Eastbound',30.124329,31.376574
Al Hennawy Furniture - Airport Road,riskiest.newlywed.mocked,El-Hennawy Furniture 'Westbound',30.12446,31.376423
Al Herafyeen - Gesr Al Suez,solicitor.sprawls.eyelash,,30.136904,31.387648
Al Herafyeen - Gesr Al Suez,tricycle.adhesive.them,,30.136763,31.387785
Al Hikma Labs - Nohza St,gadgets.barefoot.regularly,,30.107208,31.344374
Al Hikma Labs - Nohza St,hobbies.disarmed.laugh,,30.107159,31.344564
Al Horia Square - Maadi,pleasing.just.hunk,,29.959663,31.254349
Al Horreya Square,invoices.yelled.shuttling,,30.168861,31.602583
Al Horreya Square,petted.hardback.fatherly,,30.167946,31.602236
Al Hossary,advising.sideburns.blur,,29.973577,30.943935
Al Howaify Ceramics - Terat Al Sawahil St,prank.loudness.cluttered,,30.075298,31.211945
Al Huda Mosuqe - Al Moski,penned.stocky.lyrics,,30.052176,31.256748
Al Huda Mosuqe - Al Moski,youths.boating.sunbeam,,30.052002,31.256573
Al Hussein Hospital - Daraasa,coarser.alerting.gangs,,30.04557,31.267014
Al Imam Al Shafei Cemetaries - Autostrad,coping.beauty.grips,,30.012442,31.267273
Al Ismailiya Square,impressed.newly.snapper,,30.096697,31.334877
Al Ismailiya Square,scream.amaze.decays,,30.096487,31.334917
Al Itihadeya,grub.foggy.sweeter,,30.090296,31.31988
Al Itihadeya,revised.sisters.buzzards,,30.090559,31.31984
Al Kahraba Hosuing Complex,convinced.coughed.waxing,,29.872654,31.289335
Al Kahraba Hosuing Complex,gloom.empty.huddled,,29.872765,31.289448
Al Kahraba Street - Nasr City,imprinted.restores.familiar,,30.0502,31.389242
Al Kahraba Street - Nasr City,latched.propelled.abstracts,,30.05003,31.389256
Al Kasr Al Aini Hospital,cuddling.alcove.upsetting,,30.029202,31.231014
Al Kasr Al Aini Hospital,risky.evolves.startles,,30.030825,31.232525
Al Kasr Al Aini Hospital,walking.shower.regress,,30.030737,31.23078
Al Kawetch - Matareyya,bitter.labels.hurry,,30.128681,31.296139
Al Kawetch - Matareyya,sues.teams.oiled,,30.128363,31.296206
Al Kersh Cars - Heliopolis,meant.coasters.appointed,El Kersh Cars 'eastbound',30.084259,31.325857
Al Kersh Cars - Heliopolis,outboard.cleansed.switched,,30.084429,31.325838
Al Khalafawy Square,animals.shower.marzipan,,30.098013,31.24538
Al Khalafawy Square,half.forever.demanding,,30.09797,31.24551
Al Khanka - Al Salam Road,quickly.cubes.panicking,,30.227777,31.358488
Al Khanka Local Unit,uttering.stunt.actors,,30.223242,31.359228
Al Khanka Terminal,performs.joys.souk,,30.22,31.371689
Al Khankah Police Station,snapped.fracture.mysteries,,30.228369,31.362186
Al Khashab Bridge,hulk.allies.lump,,30.009602,31.227407
Al Khashab Bridge,mule.lovely.brightens,,30.009604,31.22727
Al Khelaa,holdings.outboard.gasp,,30.017752,31.264547
Al Khelaa,milder.deed.dolls,,30.017385,31.264917
Al Khelaa,wishes.incursion.spindles,,30.017504,31.264744
Al Khosous,roost.punch.playback,,30.15803,31.320232
Al Khosous Bus Station,daring.elbowing.demand,,30.162842,31.322893
Al Khosous Bus Station,primed.lease.cleanest,,30.16287,31.323223
Al Khouly Steps - Ring Road,obstruct.stops.hindering,,30.099295,31.20092
Al Khouly Steps - Ring Road,scribbled.prove.tailing,,30.099117,31.20103
Al Kuwaiti Mosque - Zahraa Al Maadi,jars.rainwater.brochure,,29.9614,31.313738
Al Kuwaiti Mosque - Zahraa Al Maadi,peachy.samples.archduke,,29.961643,31.313585
Al Laimoon Bridge,trailing.outlines.pave,,30.062027,31.246017
Al Lewaa Steps - 26th of July Mehwar,hoped.reconnect.self,,30.060074,31.187222
Al Lewaa Steps - 26th of July Mehwar,vitals.seriously.behalf,,30.059988,31.187159
Al Maahad St - Nile Courniche,combines.knees.lectured,,29.942974,31.272358
Al Maahad St - Nile Courniche,warnings.autumn.hurray,,29.942896,31.272272
Al Maamal - Al Remaya St,distracts.proven.tent,,29.99049,31.116272
Al Maasara Ferry,reckons.swatted.before,,29.901474,31.288033
Al Maasara Ferry,tweezers.renewals.regulator,,29.90146,31.28794
Al Maasara For Engineering Industries,behaving.shields.fuzz,El Maasara for Engineering Industries 'Southbound',29.905754,31.288372
Al Maasara For Engineering Industries,winning.cement.rhino,,29.905787,31.288431
Al Maasara Police Station,magnets.passes.spaceship,,29.888689,31.3039
Al Maasra Entrance - Autostrad,game.ulterior.sends,,29.904932,31.307676
Al Maasra Entrance - Autostrad,slows.removers.bounding,,29.904943,31.307844
Al Mafareq - Moqattam,expensive.sushi.flattery,,30.011814,31.329802
Al Mafareq - Moqattam,park.galloping.darkens,,30.011997,31.32942
Al Mafariq - Al Zawya Al Hamra,confident.anchorman.results,,30.098412,31.264963
Al Magzar Al Aali - Autostrad,pictured.plausible.servants,,30.00261,31.2745
Al Magzar Al Aali - Autostrad,trumped.turkeys.campfires,,30.002554,31.274338
Al Magzar Mariouteya Bus Station,named.growl.replayed,,29.97866,31.159628
Al Magzar Mariouteya Bus Station,outlawing.aunts.refutes,,29.978756,31.159754
Al Magzar Mariouteya Bus Station,shuffle.scatters.frantic,,29.978935,31.15996
Al Mahkama - New Cairo,cheaply.happy.saddens,,30.003527,31.426222
Al Mahkama - New Cairo,warbler.fond.hems,,30.00341,31.426292
Al Malek Al Saleh,carbonate.squirted.enrolling,,30.015453,31.228703
Al Malek Al Saleh,hiker.cheer.blasted,,30.015457,31.228533
Al Malek Al Saleh Bridge,insect.reshape.sneezing,,30.015816,31.228838
Al Malek Al Saleh Bridge,offerings.perkily.turntable,,30.015911,31.228611
Al Malek Al Saleh Bridge - Start,courts.funny.drooling,,30.013704,31.228401
Al Malek Al Saleh Bridge - Start,retrain.irritate.tiles,,30.01377,31.2283
Al Malek Al Saleh Bus Station,butlers.cartoons.reflected,,30.01593,31.23239
Al Malek Al Saleh Bus Station,cove.flagging.dives,,30.016022,31.23239
Al Malek Al Saleh Metro Station,eased.gashes.measures,,30.018171,31.229294
Al Malek Al Saleh Metro Station,hinders.apartment.stole,,30.018211,31.22921
Al Malek Al Saleh Tunnel Roundabout,bunk.streak.finalists,,30.01613,31.23401
Al Manara Kiosk - Moqattam,pose.sway.notices,,30.007011,31.328926
Al Manara Kiosk - Moqattam,snuggled.sprouting.dwarf,,30.00697,31.328827
Al Manarah Center For International Conferences,tastes.prettiest.ticking,,30.018322,31.386217
Al Manhal Private School,noble.modes.conforms,,30.055962,31.357517
Al Manial,likely.bookshop.friend,,30.02843,31.224298
Al Manial,strumming.dupe.wizards,,30.028318,31.224285
Al Mansoreya - 26th of July Mehwar,locked.missions.landowner,,30.062904,31.09802
Al Mansoureya Canal Rd - Nahya,drops.birdcage.riddle,,30.058088,31.127079
Al Maqreezy St - Gesr Al Suez St,remix.ripe.enchanted,,30.089773,31.303797
Al Maqreezy St - Gesr Al Suez St,swipes.dictation.committee,,30.089712,31.303843
Al Maraziq - Southern Dahshour Junction,baking.cigar.commenced,,29.80829,31.272736
Al Maraziq - Southern Dahshour Junction,existence.soap.jokers,,29.80826,31.27266
Al Maraziq Checkpoint,increased.moisture.assembles,,29.7966,31.298347
Al Maraziq Checkpoint,wins.tornado.excellent,,29.796577,31.298513
Al Marioteya Road - 26th of July Mehwar,finer.outpost.eminent,,30.065132,31.126377
Al Masa Hall - Maasara Nile Courniche,jabs.petition.tailwind,,29.911516,31.286692
Al Masa Hall - Maasara Nile Courniche,leathers.yield.pony,,29.911526,31.286804
Al Masabek Steps - Ring Road,evolves.latches.shelving,,30.090952,31.196869
Al Masah - Nasr City,devotion.sedative.bids,,30.059359,31.317032
Al Masah - Nasr City,redeemed.sage.policy,,30.059227,31.316841
Al Masah Hospital - Mahdy Arafa,equivocal.legwork.running,,30.052721,31.379496
Al Masah Hospital - Mahdy Arafa,traded.toasters.essential,,30.052734,31.379246
Al Masallah - Al Terilli St,certainly.dummy.coffee,,30.127495,31.308311
Al Masriya - Nasr City,jokes.drawn.blasted,,30.062933,31.361832
Al Masriya - Nasr City,lateral.giants.defers,,30.062939,31.361946
Al Matareya Metro Station,lush.headless.talker,,30.121422,31.313549
Al Matbaa Bus Station,haircuts.satin.fools,,29.973766,31.247149
Al Matbaa Bus Station,resonated.unlucky.together,,29.973722,31.246645
Al Mazallaat - Shubra,uproot.arena.lifetimes,,30.101738,31.245249
Al Mazallat - Shubra,clicker.movies.lately,,30.102018,31.246168
Al Mazallat - Shubra,motivate.tightrope.uppermost,,30.102129,31.245913
Al Mazallat - Shubra,radiating.users.lyrics,,30.101793,31.24535
Al Mazallat Checkpoint,dimension.limp.dice,,30.102999,31.243448
Al Mazallat Checkpoint,increases.random.cosmetic,,30.1032,31.243242
Al Mazallat Checkpoint,tuxedos.conceals.abruptly,,30.10312,31.243315
Al Mazallat Metro Station,reclaimed.spirits.gathers,,30.10376,31.245443
Al Mazallat Metro Station,scope.derailed.producing,,30.103752,31.245798
Al Mearag Mosque - Ring Road,sleepers.slanting.riders,Al Mearag Mosque 'Eastbound',29.986307,31.309513
Al Mehwar Desert Road,jaws.lamenting.cute,,30.046703,31.051838
Al Moassasa,bars.servants.worms,,30.123888,31.243042
Al Moassasa,channel.remission.spoiled,,30.123755,31.242823
Al Moassasa,porch.prune.country,,30.120441,31.245617
Al Moassasa,portfolio.certified.bulky,,30.120544,31.24574
Al Moassasa Steps - Ring Road,contained.response.collected,,30.16674,31.37168
Al Moassasa Steps - Ring Road,populate.loom.sulked,,30.166914,31.371672
Al Moatamadiya Post Office,crass.gazed.haggling,,30.050852,31.169855
Al Moatamadiya Post Office,suiting.imprinted.crunched,,30.050783,31.169752
Al Moemen Mosque,ribcage.bluntly.post,,30.057785,31.3744
Al Moemen Mosque,target.weeps.clues,,30.057571,31.37432
Al Mogamaa - Arbean St,brothers.rationed.bashful,,30.136316,31.315279
Al Mohandes Insurance - Ramses,hampers.hobby.excavate,,30.066616,31.259806
Al Mohandes Insurance - Ramses,limiting.town.eggshell,,30.066439,31.259886
Al Mokhayam Al Daaem - Al Shaheed Axis,scaffold.dangerously.redeeming,,30.047398,31.31414
Al Mokhtabar - Haram Street,faces.apart.enlarge,,29.992466,31.1566
Al Mokhtabar - Haram Street,health.evenings.budget,,29.992586,31.156551
Al Moneeb Entrance - Ring Road,sandbags.jumped.licks,,29.986296,31.209166
Al Moneeb Exit - Ring Road,gain.debate.nosedive,,29.985815,31.20841
Al Moqattam Hospital,slicer.probably.fidgeted,,30.020565,31.243675
Al Moqattam Hospital,vase.spindles.padlock,,30.02064,31.243692
Al Mosheer Tantawy Mosque,townhouse.supply.provider,,30.020378,31.377903
Al Moski - Port Said Street,reprints.curtail.newsreel,,30.048008,31.25494
Al Mosky Steps,acting.amending.disposing,,30.04988,31.255562
Al Mosky Steps,flukes.weeds.trying,,30.049904,31.255737
Al Mostaqbal Square - Obour,heave.rounds.chap,,30.26733,31.479296
Al Mostashfa ST (King Faisal),ignore.elevated.dandelions,,29.995499,31.151705
Al Mostashfa ST (King Faisal),tidy.mainframe.shrubbery,,29.99566,31.151697
Al Mostashfa St - Ahmed Helmy St,bigger.throat.admiral,,30.073332,31.254347
Al Mostashfa St - Ahmed Helmy St,zips.distract.pods,,30.07331,31.254482
Al Motamayez Entrance,mint.investor.afternoon,Al-Motamayez District Entrance 'Northbound',29.995943,30.96201
Al Mothalath - Ahmed Al Zomor,issues.reefs.multiples,,30.048033,31.370842
Al Mothalath - Ahmed Al Zomor,singers.ratio.pampered,,30.048288,31.37139
Al Mothalath - Marg,yourself.play.disprove,,30.212894,31.35778
Al Mounira Hospital,barbarian.herds.clock,,30.034452,31.23905
Al Mounira School - Downtown,witty.salads.lowest,,30.032558,31.234665
Al Na'am Square - Ain Shams,backtrack.funds.police,,30.12167,31.317968
Al Nada Hospital - Manial,coining.fault.impresses,,30.019455,31.225248
Al Nada Hospital - Manial,unheated.cries.shapeless,,30.019386,31.225323
Al Nadi Square - Maadi,racetrack.bond.messing,,29.963154,31.263737
Al Nady St - Al Khalifa Al Mamoun,elbowed.dribble.squeaking,,30.09081,31.312334
Al Nady St - Al Khalifa Al Mamoun,upon.votes.unpacked,,30.090565,31.312443
Al Nahda Square - Al Shorouq,dreamer.reflected.jetting,,30.161211,31.62349
Al Nahda Square - Al Shorouq,tadpoles.cubes.recent,,30.1618,31.624016
Al Nahyan Hospital - Sheikh Zayed,relatives.snaps.headline,El Sheikh Zayed Al Nahyan Hospital 'southbound',30.051401,31.288307
Al Nahyan Hospital - Sheikh Zayed,tall.willpower.continues,El Sheikh Zayed Al Nahyan Hospital 'northbound',30.051294,31.288368
Al Nakhl - Nile Courniche,couches.performed.tidying,,29.8887,31.289171
Al Nakhl - Nile Courniche,reseller.sporting.perfumed,,29.888704,31.28927
Al Nasr Hospital - Helwan,magnitude.skins.trackers,,29.83915,31.321693
Al Nasr Hospital - Helwan,sidelined.canine.prepped,,29.839218,31.321798
Al Nasr Hotel - Al Tayaran,fields.hunk.cherish,,30.07053,31.324482
Al Nasr Hotel - Al Tayaran,waged.views.evidently,,30.070591,31.324656
Al Nasr Restaurant - Basateen,wand.removable.frantic,,29.98616,31.271645
Al Nasr School - Waili,acrobats.craftsmen.screening,,30.0966,31.277388
Al Nasr School - Waili,revealing.talker.darting,,30.096582,31.277498
Al Noaman Palace - Orouba Rd,cork.deflate.guarding,,30.086145,31.325945
Al Noaman Palace - Orouba Rd,knowledge.shameless.cavalier,,30.08624,31.325869
Al Noqrashy School - Hadayek Al Qobba,circular.clarifies.cult,,30.091951,31.293217
Al Noqrashy School - Hadayek Al Qobba,stems.cleanser.kindness,,30.092031,31.29312
Al Nour Mosque - Abbasseya,over.narrow.thrashed,,30.074873,31.282331
Al Nour Mosque - Helwan Courniche,mash.sediment.toads,,29.813047,31.301075
Al Nour Mosque - Helwan Courniche,redeeming.dizzy.animator,,29.813057,31.301178
Al Nour Mosque - Nasr City,unwraps.send.hats,,30.04985,31.386005
Al Nozha Al Gadeeda,intruded.recorder.else,,30.129013,31.361492
Al Nozha Al Gadeeda,shepherds.innocence.snails,,30.12908,31.36174
Al Nozha Al Gadeeda Bus Station,eradicate.parts.critic,,30.12708,31.362328
Al Nozha Al Gadeeda Bus Station,graph.helping.powers,,30.127106,31.362663
Al Nozha Al Gadeeda Bus Station,pinks.acrobatic.hires,,30.1254,31.362925
Al Nozha Al Gadeeda Bus Station,yummy.capers.guideline,,30.12566,31.363197
Al Omraneyya,bared.bracelet.conspire,,29.995625,31.203712
Al Omraneyya,crash.studs.fuels,,29.994461,31.198175
Al Omraneyya Bridge - End,chatters.situation.resold,,29.998625,31.205225
Al Omraneyya Bridge - End,gather.writers.plod,,29.998503,31.20515
Al Omraneyya Bridge - Start - Giza,limiting.latitudes.overt,,30.002886,31.208817
Al Omraneyya Bridge - Start - Giza,pram.lawful.cadet,,30.002901,31.208694
Al Omraneyya Bus Station,observers.soda.vital,,29.993057,31.191826
Al Omraneyya Steps - Ring Road,absent.channel.tweeted,,29.985207,31.206505
Al Omraneyya Steps - Ring Road,weary.walkway.flamed,,29.985334,31.206339
Al Orouba Rd - Al Thawra St,dispenser.cheetahs.dining,,30.089043,31.330631
Al Orouba Rd - Al Thawra St,parties.reissued.bumps,,30.088385,31.330063
Al Orouba Tunnel,dashes.dweller.romantics,,30.085737,31.3229
Al Orouba Tunnel,funnels.caressing.shape,El Orouba Tunnel 'Northbound',30.085855,31.323011
Al Othman Motors - Ring Road,frown.sampled.internal,,30.165676,31.358969
Al Qalag - Marg,clays.pony.muscular,,30.17714,31.34849
Al Qawmeya Al Arabeya Street,loses.petrified.sing,,30.09339,31.208502
Al Qawmeya Cement Club,dizziness.elders.flaking,,29.82343,31.30004
Al Qawmeya Cement Club,tonsils.removers.delusions,,29.823423,31.299915
Al Qobba Al Fidaweyya Mosque - Abaseyya,forensic.actors.tentacles,,30.069128,31.280527
Al Qobba Al Fidaweyya Mosque - Abaseyya,signature.walking.twins,,30.069046,31.280552
Al Qudsi Mosque - Ain Shams St,outsmart.prefix.trees,,30.137266,31.325613
Al Qudsi Mosque - Ain Shams St,ringside.tiny.rugs,,30.137278,31.32554
Al Rahma Mosque - Airport Road,grounded.index.syndicate,New Nozha 'Westbound',30.121313,31.372154
Al Rahma Mosque - Airport Road,toddler.postings.scorecard,New Nozha 'Eastbound',30.121025,31.372356
Al Rahman Mosque - Al Salam,asterisk.touched.spaceship,,30.170624,31.422419
Al Rashaah - Kerdasa,claw.bumps.bulky,,30.023123,31.106602
Al Rashaah - Kerdasa,national.golf.soonest,,30.023104,31.106535
Al Rashaah Steps - Ring Road,busy.shortens.dubbing,,30.163366,31.323687
Al Rashaah Steps - Ring Road,imperious.audit.screaming,,30.163202,31.323433
Al Rawda Square - Al Manial,conspired.overruns.distracts,,30.016167,31.2247
Al Rayan Hospital - Maadi,looms.sprouted.exacted,,29.968021,31.264923
Al Rayan Hospital - Maadi,partly.numeral.bronzed,,29.967318,31.265654
Al Remaya Square,earplugs.plug.sooner,,29.988522,31.129456
Al Remaya Square,gasping.rags.march,,29.988533,31.127594
Al Remaya Square,spent.hillside.outs,,29.989767,31.127693
Al Remaya Square 28,daisy.commands.lifeboats,,29.99098,31.1314
Al Remaya Square 28,nerd.directs.vowing,,29.990381,31.133532
Al Saaa Square,prickly.dressings.picnic,,30.07014,31.338427
Al Saaa Square,whoever.polar.pads,,30.070107,31.338701
Al Sabteyya School - Sabteyya,plank.ghosts.finger,,30.06549,31.23596
Al Safa School - Wadi Hof,bookshelf.national.strongly,,29.886381,31.303558
Al Safa Wal Marwa Mosque Steps - Ring Road,caressing.insiders.clings,El Safa W El Marwa Mosque steps 'Eastbound',29.99251,31.24058
Al Saff Bus Station,cleanser.luring.fresh,,29.863565,31.323288
Al Saff Bus Station,riverbed.narrating.switch,,29.863678,31.323399
Al Safwa Hospital - Shubra,adopters.eaten.reinvest,,30.093693,31.2454
Al Safwa Hospital - Shubra,behalf.impaled.fortress,,30.093695,31.24531
Al Sahel Fire Department,answers.distracts.stiletto,,30.08545,31.245441
Al Sahel Fire Department,nodded.utter.coil,,30.085474,31.24531
Al Sahel Police Department,broker.seeing.lifted,,30.083984,31.245268
Al Sahel Police Department,districts.tidal.switch,,30.084158,31.245382
Al Sahel Youth Center,downs.sobbed.obviously,,30.097712,31.253296
Al Sahel Youth Center,mulls.series.pressing,,30.097641,31.253029
Al Salam,confident.slamming.fuel,,30.155006,31.408901
Al Salam,wording.pelt.serve,,30.15528,31.40884
Al Salam Awwal Police Station,deflection.love.ordeals,,30.159403,31.413313
Al Salam Awwal Police Station,vines.towel.dent,,30.159355,31.41338
Al Salam Center - Maadi,dynamic.rattler.succumbs,,29.977562,31.275085
Al Salam Center - Maadi,lookout.comically.skews,,29.977638,31.275238
Al Salam Exit - Ring Road,estimate.tomato.deck,,30.16464,31.389093
Al Salam Hospital - Al Salam,scorecard.repeating.whirlpool,,30.164219,31.419817
Al Salam International Hospital,doses.replayed.waged,,29.98506,31.229553
Al Salam International Hospital,handlebar.yacht.crush,,29.985056,31.22967
Al Salam Mosque - Haram Street,chambers.slyly.throw,,30.00362,31.1863
Al Salam Mosque - Haram Street,forensic.quits.jams,,30.003792,31.186283
Al Salam Mosque - Nasr City,dazzling.peach.valley,,30.04646,31.356201
Al Salam Mosque - Nasr City,hoping.excusing.translate,,30.046728,31.35661
Al Salam Tunnel Ring Road - End,eats.asked.glades,,30.14842,31.42572
Al Salam Tunnel Ring Road - Start,harmless.jolt.slam,,30.148613,31.425762
Al Saraya Elementary School - Abaseyya,slimmer.frames.sensibly,,30.06762,31.28349
Al Saraya Mall - 5th Settlement,crossings.admire.pram,,29.996315,31.430637
Al Sawah Square,piled.pretty.telephone,,30.107841,31.282597
Al Sawah Square,prawn.conjured.test,,30.108393,31.28317
Al Sawalha Complex - Al Sekka Al Hadeed St,latter.series.prettiest,,30.128977,31.27041
Al Sawaris Square - Maadi,tutored.encodes.hazelnuts,,29.963215,31.260717
Al Sawy Culture Wheel,dumpy.haggling.tidal,,30.062286,31.217205
Al Sawy Culture Wheel,fictional.numeral.lodge,,30.062117,31.217148
Al Sayeda Aisha,convinced.avoid.unzipped,,30.024378,31.257473
Al Sayeda Aisha,dentures.summit.deed,,30.026161,31.257233
Al Sayeda Aisha,dignify.alarming.heats,,30.0245,31.257284
Al Sayeda Aisha,fidgeting.groom.cure,,30.02461,31.257383
Al Sayeda Aisha,innovator.trimmer.tenders,,30.028326,31.257912
Al Sayeda Aisha,tests.sour.unicorns,,30.024458,31.257383
Al Sayeda Aisha Bus Station,dude.webcams.circling,,30.026709,31.25608
Al Sayeda Khadija Mosque - Al Hegaz Street,scrolled.firming.difficult,,30.117786,31.355661
Al Sayeda Khadija Mosque - Al Hegaz Street,sweep.shun.watched,,30.118055,31.355474
Al Sayeda Nafeesa Bus Station,deals.glare.presented,,30.020191,31.25143
Al Sayeda Nafeesa Bus Station,weaned.invent.sparkles,,30.019945,31.251179
Al Sayeda Safeya Mosque - Salah Salem,chum.composers.digitally,,30.08379,31.321436
Al Sayeda Safeya Mosque - Salah Salem,testers.bill.nametag,,30.083628,31.321547
Al Sayeda Zeinab,inhales.claims.demotion,,30.033152,31.241777
Al Sayeda Zeinab,waving.shrug.bulk,,30.032047,31.243006
Al Sayeda Zeinab District Presidency,tablets.quite.latitudes,,30.030712,31.247993
Al Sekka - Ring Road,iterative.sleeps.divorcing,,30.07944,31.183414
Al Sekka - Ring Road,pacifist.harp.stiletto,,30.07923,31.183447
Al Sekka Al Hadid Sporting Club - Nasr City,issued.amps.hungry,,30.058617,31.303406
Al Sekka Al Hadid Sporting Club - Nasr City,pounces.blotting.implanted,,30.058971,31.302876
Al Sekka Al Hadid Sporting Club - Nasr City,throat.manages.binder,,30.058533,31.302467
Al Serag Mall,calendars.weaned.objective,,30.051353,31.346632
Al Shaarawy Street - Shubra Al Kheima,marine.bride.wagers,,30.133667,31.277643
Al Shabab - Al Tagneed,bunk.loser.loaning,,29.984213,31.111347
Al Shabab - Al Tagneed,shrugging.nervy.inflation,,29.984228,31.111443
Al Shabab Entrance - 1st Settlement,elbowing.roof.establish,,30.052444,31.452364
Al Shaboory Canal Station,replied.easygoing.snail,,30.132582,31.281689
Al Shaboory Canal Station,tastier.clinking.chilling,,30.132423,31.281706
Al Shabrawy - Al Mansoreya Road,equal.paradise.freezers,,29.989964,31.134977
Al Shaheed Axis,incurring.expecting.wacky,,30.02398,31.343203
Al Shaheed Axis,moon.chickens.thousands,,30.0231,31.3442
Al Shaheed Axis Pedestrian Bridge,roofed.snowy.implore,,30.031593,31.335361
Al Shaheed Mosque - Marg,boil.neatly.plenty,,30.153336,31.330456
Al Shaheed Square - Obour,custard.zaps.kitten,,30.258307,31.469707
Al Shaheed Square - Obour,reflector.gourmet.tarred,,30.258167,31.469997
Al Shaq steps - Autostrad,circus.seriously.credited,,29.953848,31.287386
Al Shaq steps - Autostrad,redeeming.archives.genetics,,29.953852,31.28719
Al Sharabeya Bus Station,farmland.slime.scariest,,30.079042,31.261091
Al Shari' Al Gadeed Station - Bahteem,pipeline.necklaces.trickle,,30.135145,31.270947
Al Shari' Al Gadeed Station - Bahteem,steep.obtain.pipeline,,30.135593,31.270979
Al Sheikh Agamy - Marg,champions.stages.award,,30.195812,31.35285
Al Sheikh Mansour,arise.chatting.crouches,,30.145397,31.331627
Al Sheikh Mansour,microchip.pictures.grad,,30.151405,31.335312
Al Sheikh Parking - Ahmed Helmy St,harnessed.radically.lows,,30.094118,31.255999
Al Sheikh Parking - Ahmed Helmy St,nightfall.facing.tailors,,30.094103,31.256134
Al Sherif Mosque - Al Manial,cracker.cookbooks.colder,,30.016163,31.224783
Al Shimy Car Center - Hadayeq Al Qobba,straddled.access.prevents,,30.093586,31.288649
Al Shimy Car Center - Hadayeq Al Qobba,works.majors.engine,,30.09364,31.288507
Al Shorouq Academy Entrance,kebab.landmark.pacifist,,30.108433,31.611786
Al Shorouq Academy Entrance,venue.tilts.ignore,,30.108303,31.612448
Al Shorouq City Authority Steps,gems.roaming.cubs,,30.158062,31.607248
Al Shorouq City Authority Steps,grudging.burden.sprint,,30.157965,31.607307
Al Shorouq Club - Nile Courniche,hesitate.looks.obtain,,29.945848,31.269627
Al Shorouq Club - Nile Courniche,strictest.fussed.gates,,29.945614,31.269749
Al Shorouq Entrance 3,lifestyle.betraying.guards,,30.110067,31.670498
Al Shorouq Entrance 3,soils.unfocused.buzzing,,30.109783,31.671469
Al Shorouq Hospital - 15th of May St,megawatt.drip.elect,,30.11874,31.266876
Al Shorouq Hospital - 15th of May St,premiums.juicy.downturn,,30.118591,31.26701
Al Shorouq Housing Complex Entrance,craftsman.shin.wells,,30.067125,31.360275
Al Shorouq Housing Complex Entrance,inspects.shin.inclined,,30.06711,31.360397
Al Shorouq School,detect.wounds.bookings,,30.166433,31.651596
Al Shorouq School,nerd.emperor.picnic,,30.166296,31.651455
Al Shorouq Water Station,acre.vaccines.generally,,30.161472,31.621674
Al Shorouq Water Station,retiring.hulk.euphoric,,30.161575,31.621534
Al Soltan Hassan Mosque,political.harsh.offstage,,30.031046,31.257513
Al Soltan Hassan Mosque,slings.merge.plant,,30.031393,31.256714
Al Souq Bus Station - Moqattam,flickers.supreme.crystals,,30.011332,31.331722
Al Souq Bus Station - Moqattam,perkily.fortress.proves,,30.011248,31.332712
Al Sudan Steps - 26th of July Mehwar,liability.wording.beauty,,30.059341,31.18976
Al Taawon - Haram St,obtain.blatantly.icicles,,29.995722,31.164904
Al Taawon - Haram St,worm.directly.novels,,29.99567,31.165176
Al Taawon Gas Station - Al Shabab Street - Obour,clattered.young.super,,30.247614,31.45895
Al Tabba - 6th of October,exhaling.stapled.enormous,Al Tabba 'Northbound',29.991407,30.95497
Al Tabba - Nasr City,singers.thrashing.menswear,,30.058405,31.379938
Al Tabba - Nasr City,unite.cookers.king,,30.05832,31.380188
Al Tadreeb Gate - Teraet Al Ismaili St,melons.composts.begins,,30.11002,31.269814
Al Tadreeb Gate - Teraet Al Ismaili St,stud.awaited.bonfires,,30.10991,31.26968
Al Tagneed Terminal,bulletins.armful.saturate,,29.980846,31.112457
Al Talateeny - Al Lebeny St,operating.specifies.dishing,,29.982605,31.153406
Al Talateeny - Al Lebeny St,slim.jogged.woodstove,,29.982693,31.153534
Al Talbeya Steps - Ring Road,scars.suddenly.fruitcake,,29.986698,31.188534
Al Talbeya Steps - Ring Road,starter.smug.reseller,,29.986858,31.188484
Al Tarfaya - Dahshour,emulated.equipping.pine,,29.830564,31.274782
Al Tawba Mosque - Abu Al Nomros,bracelet.bead.arise,,29.929398,31.259315
Al Tawba Mosque - Abu Al Nomros,estimated.swanky.wheat,,29.929361,31.259226
Al Tawheed Mosque - 1st Settlement,dabbling.melons.simulations,,30.061687,31.461777
Al Tawheed Mosque - Al Zaytoun,durations.dormant.afford,El Tawheed Mosque - Az Zaytoun 'Northbound',30.100172,31.290648
Al Tawheed Wal Nour - Abbas Al Akkad,imperious.warnings.hurtles,,30.056213,31.338306
Al Tawheed Wal Nour - Abbas Al Akkad,squeezed.songbird.elbow,,30.056187,31.338074
Al Tawheed Wal Nour - Al Geish Street,loosens.improving.trappings,,30.060593,31.264593
Al Tawheed Wal Nour - Al Geish Street,riverside.space.dogs,,30.060656,31.264553
Al Tawheed Wal Nour - Al Nozha Street - Heliopolis,ages.reclining.sprain,El Tawheed w El Noor - Nasr City 'Southbound',30.090267,31.341406
Al Tawheed Wal Nour - Al Nozha Street - Heliopolis,perplexed.chainsaw.oppose,,30.090591,31.34103
Al Tawheed Wal Nour - Al Sayeda Zeinab,piano.threading.limp,El Tawheed w El noor - AL Sayedah Zeinab 'Southbound',30.035936,31.247921
Al Tawheed Wal Nour - Al Sayeda Zeinab,ratty.spin.handbook,El Tawheed w El noor - AL Sayedah Zeinab 'northbound',30.03587,31.247982
Al Tawheed Wal Nour - Al Waili,uppermost.knots.likes,El Tawheed W El Nour - Al Waili 'Northbound',30.094498,31.288975
Al Tawheed Wal Nour - Autostrad Maadi,coins.sparrows.profiled,,29.961706,31.287447
Al Tawheed Wal Nour - Autostrad Maadi,task.exploring.mainframe,,29.961756,31.287579
Al Tawheed Wal Nour - Faisal St,blaring.helpless.compress,,29.992489,31.143232
Al Tawheed Wal Nour - Faisal St,suitably.scarred.canines,,29.992393,31.143328
Al Tawheed Wal Nour - Gamal Abd El Nasser St - Warraq,mainland.beside.producers,,30.09628,31.223362
Al Tawheed Wal Nour - Gamal Abd El Nasser St - Warraq,moved.formless.policy,,30.096283,31.22344
Al Tawheed Wal Nour - Merryland,hope.stockpile.safety,,30.100769,31.324593
Al Tawheed Wal Nour - Merryland,warns.verge.loafing,,30.100578,31.324722
Al Tawheed Wal Nour - Mostafa Al Nahas,marine.beam.lifeguard,,30.054716,31.346083
Al Tawheed Wal Nour - Mostafa Al Nahas,parading.frost.melons,,30.054607,31.346369
Al Tawheed Wal Nour - Obour,romance.screeches.stores,,30.19898,31.457628
Al Tawheed Wal Nour - Obour,unfocused.peanut.overcomes,,30.199045,31.457785
Al Tayaran - Mostafa Al Nahas,nails.buyers.mend,,30.052677,31.327213
Al Tayaran - Mostafa Al Nahas,wrong.refuse.indulgent,,30.052464,31.32708
Al Thawra Hospital,convey.become.retrain,,30.090816,31.325806
Al Thawra Hospital,inefficient.smarting.ages,,30.090714,31.325777
Al Tibeen,boarding.soonest.graced,,29.789633,31.296234
Al Tibeen,deranged.giants.graver,,29.790243,31.29775
Al Tibeen,perkily.hurray.comforted,,29.788101,31.295866
Al Tibeen (Madinat Al Solb),manuals.juggles.bibs,,29.781528,31.309252
Al Toob Al Ramly,elastic.glow.ruling,,30.038887,31.359394
Al Toob Al Ramly,overdone.alternate.town,,30.038994,31.359512
Al Torgoman,fetch.rollers.liquid,,30.060595,31.23757
Al Torgoman,mixer.aimlessly.camp,,30.060507,31.23749
Al Wafaa Wal Amal City,jelly.amps.elbowing,Al Wafaa Wal Amal City 'Southbound',30.038244,31.355278
Al Waha Compound - Al Shorouq,leans.dabbling.rocked,,30.143555,31.661762
Al Waha Compound - Al Shorouq,lung.counters.whiplash,,30.14357,31.661917
Al Ward St - Mansoureyya Rd,ripples.bandaged.awoke,,29.967728,31.146627
Al Ward St - Mansoureyya Rd,taxed.spades.funds,,29.967644,31.146423
Al Warraq,dwell.tanks.searching,,30.121422,31.20168
Al Warraq,thickens.grace.solo,,30.121399,31.20147
Al Warraq Bus Station,inched.facelift.bars,,30.107075,31.213226
Al Warraq Bus Station,waltzed.splints.grudges,,30.107082,31.213411
Al Warraq Central Hospial,debut.hunter.bashful,,30.093447,31.214027
Al Warraq Central Hospial,radiates.bouncing.goat,,30.09315,31.213753
Al Warraq Exit - Ring Road,inversion.occurs.traffic,,30.125515,31.20174
Al Warraq Exit - Ring Road,smiling.innocence.ordering,,30.12554,31.20152
Al Warraq Exit - Ring Road,webcams.doted.fled,,30.119043,31.202131
Al Warraq Ferry,cobras.mailers.restless,,30.105005,31.220545
Al Warraq Ferry,mills.lows.dream,,30.10492,31.22048
Al Warraq Water Station,potato.shadows.blunders,,30.114674,31.209661
Al Warraq Water Station,trappings.collide.wakes,,30.114658,31.209566
Al Wehda Bus Station - Imbaba,crouch.basic.hourglass,,30.08687,31.217087
Al Wehda Bus Station - Imbaba,degrading.first.confronts,,30.086967,31.217117
Al Wehda Bus Station - Imbaba,fonts.swooning.soak,,30.086967,31.216597
Al Wekala - Nile Courniche,pigs.remit.booms,,30.059055,31.228006
Al Wekala - Nile Courniche,routs.holly.minds,,30.059196,31.228071
Al Zatoun School - Heliopolis,goodbyes.slumped.rival,,30.110527,31.315374
Al Zawya Al Hamra,snares.humans.webcams,,30.098576,31.26222
Al Zawya Youth Center,monument.remove.baths,,30.101606,31.265688
Alex Bank - Hegaz,agency.dignity.handle,,30.0968,31.319414
Alex Bank - Hegaz,similar.slice.testy,,30.096638,31.319603
Alexandria Desert Road Exit - Ring Road,spoiler.lollipop.itself,,29.998688,31.116833
Alexandria Desert Road Steps - 26th of July Mehwar,massaging.anode.dusty,,30.048061,31.05442
Alf Maskan,carriage.says.rectangular,,30.118582,31.340498
Alf Maskan,eyelashes.overtones.enlighten,,30.119146,31.339767
Alf Maskan,neckline.sediment.fond,,30.118689,31.340864
Alf Maskan,piglet.treating.snowstorm,,30.121021,31.340454
Alf Maskan,plant.clocking.landlords,,30.118958,31.339884
Alf Maskan,slid.ratio.repeats,,30.121344,31.339989
Alfa Lab - Manial,defenders.manliness.revamped,,30.023283,31.225885
Alfa Market - Nile Courniche,defining.talkative.complains,,29.962238,31.246304
Alfa Market - Nile Courniche,waddle.airports.ballooned,,29.962225,31.246172
Ali Abdel Halim St - Tahrir St,bead.jingles.describe,,30.039158,31.215902
Ali Abdel Halim St - Tahrir St,relies.pasta.insect,,30.03926,31.215837
Ali Al Sheikh Tower - Abboud,juggled.slung.talkative,,30.10118,31.256067
Ali Al Sheikh Tower - Abboud,reputable.ships.flight,,30.101057,31.255949
Ali Basha Street,announced.apricot.bridges,,30.036186,31.255049
Ali Basha Street,mincing.hippy.downfield,,30.03629,31.255081
Almaza Bridge - End,streaking.reforming.tucked,,30.08042,31.360945
Almaza Bridge - Start,childcare.angle.sorry,,30.080095,31.360907
American University in Cairo (AUC) - New Cairo,inversion.dime.exists,,30.009804,31.523787
American University in Cairo (AUC) - New Cairo,usual.array.bike,,30.009653,31.523523
American University in Cairo Gate 1,mattress.ogre.subject,,30.025032,31.498503
American University in Cairo Gate 1,tasks.gratuity.placidly,,30.025183,31.49882
Amin Hamada St - Petroleum St,windpipe.directly.browsers,,30.14823,31.329876
Amir Al Shoaraa School - Giza,hexes.rainfall.other,,30.000275,31.20876
Amir Al Shoaraa School - Giza,match.anode.vessel,,30.00015,31.208939
Amir Mall - Khaloussi,evolution.blurs.outbid,,30.079182,31.247953
Amiriyyah Bus Station,duet.husbands.removal,,30.107508,31.29008
Ammar Bin Yasser School - Moqattam,cork.language.twitching,,30.002666,31.330118
Ammar Bin Yasser School - Moqattam,slept.scrolled.crafts,,30.002644,31.330029
Amoun Fountain - Obour,deferring.branched.sweetener,,30.187254,31.466995
Amoun Fountain - Obour,tweezers.threaten.manifests,,30.186325,31.468576
Amr Ibn Al Aas Bus Station,sponge.observer.amplifier,,30.009415,31.232185
Anas Al Wogood Cafeteria - Badrasheen,shiny.dusty.importers,,29.848698,31.270706
Ancient Egyptian Village - Al Bahr Al Aazam,coverings.premature.media,,29.99727,31.21464
Ancient Egyptian Village - Al Bahr Al Aazam,workshop.grow.hubcaps,,29.997166,31.214516
Antidote and Vacince - Mohandeseen,according.arrive.cowboy,,30.051065,31.209562
Antidote and Vacince - Mohandeseen,spare.strays.behalf,,30.050838,31.209574
Arab African Bank - Haram Street,holidays.newsreel.reported,,29.998188,31.171827
Arab Contractors Sporting Club - Nasr Road,advancing.conceals.subsystem,,30.05571,31.294613
Arab Engineering & Construction Company - Shubra Al Kheima,worldwide.uncle.willing,,30.13329,31.278507
Arab Investment Bank - Faisal St,admires.radiates.armrests,,29.991955,31.140034
Arab Investment Bank - Faisal St,machinery.trials.continues,,29.991861,31.140041
Arab Maadi,bottom.choppers.pages,,29.970665,31.270039
Arab Maadi,customers.bonds.recruiter,,29.969406,31.269041
Arab Maadi,generally.lightly.ranges,,29.969128,31.269053
Arab Specialized Hospital - Gesr Al Suez,additives.nest.shades,,30.126457,31.351467
Arab Specialized Hospital - Gesr Al Suez,bands.tinsel.gentlemen,,30.126259,31.351332
Arab Tuweila,darkens.clipboard.engrossed,,30.139448,31.315664
Arabella Square,basics.feasting.feast,,29.985586,31.430378
Arabella Square,searching.enveloped.outfitter,,29.985518,31.429955
Arayes - Maadi,egging.pints.scooters,,29.97889,31.285913
Arayes - Maadi,sleeper.scatter.reverses,,29.978851,31.285719
Ard El Lewa - Sudan St,encoded.fruitcake.inefficient,,30.05537,31.190973
Ard El Lewa - Sudan St,photo.deranged.sourcing,,30.055252,31.19091
Ard El Lewaa,alarmed.skate.mile,,30.057407,31.18847
Ard Khedr Pedestrian Bridge - Shubra Al Kheima,dentistry.liked.baths,,30.129501,31.23814
Ard Khedr Pedestrian Bridge - Shubra Al Kheima,sharpened.populate.cave,,30.129261,31.238634
Arkadia Mall,bend.town.unafraid,,30.069899,31.226944
Arkadia Mall,domain.shots.sprays,Arkadia Mall Southbound,30.069885,31.226824
Armed Forces College Of Medicine,slouched.disengage.revised,Armed Forces College of Medicine 'Westbound',30.086878,31.303644
Armed Forces Medical Complex - Kobry Al Qobba,beaters.excuse.pocketed,,30.086048,31.297905
Armed Forces Medical Complex - Kobry Al Qobba,padding.impeached.hotels,,30.085926,31.29804
Arts Academy Transistor Station - Omraneyya,attending.setting.gather,,29.998335,31.200027
Asfour Mosque - Ibrahim Bek,louder.imparts.burst,,30.124979,31.259953
Asfour Mosque - Ibrahim Bek,sweeter.engrossed.deliver,,30.124855,31.25972
Ashrafco Tyres - Nasr City,workflow.mixers.raced,,30.050438,31.319334
Asmarat Bus Station,guidebook.adopters.scoots,,29.991255,31.344364
Asmarat Bus Station,powers.patching.warm,,29.991201,31.344263
Aswan Pedestrian Bridge - Shubra Al Kheima,project.highbrow.speeding,,30.110748,31.275839
Aswan Pedestrian Bridge - Shubra Al Kheima,tonal.much.prosper,,30.110903,31.276033
Ataba,expensive.nooks.moderated,,30.054266,31.248539
Ataba,fallback.jetted.tapers,,30.052296,31.249687
Ataba,feeds.shuffles.exclaim,,30.051554,31.250483
Ataba,fingernails.folks.releasing,,30.0536,31.246878
Ataba,quitter.guesswork.laptop,,30.05327,31.247133
Ataba,register.beakers.magazines,,30.05151,31.250525
Atfal Misr Hospital - Abou Al Reesh,relegate.song.soldiers,,30.026718,31.235876
Athar Al Naby Bus Station - Dar El Salam,went.adding.vegetable,,29.98894,31.234833
Atlas Pharmacy - Atlas St,evenings.isolating.tangible,,29.834808,31.348913
Audi Bank - Salah Salem,banks.fragment.ushering,,30.076338,31.309982
Audi Bank - Salah Salem,ears.bitter.commit,,30.076632,31.309896
Audi Bank - Salah Salem,majors.smoker.secure,Ouda Bank - Salah Salem 'westbound',30.07672,31.309793
Autostrad - Al Moneeb Axis,comfort.ringside.zoom,,29.994051,31.281534
Autostrad - Al Moneeb Axis,shots.suiting.drifting,,29.994602,31.280895
Awsim,divisions.inherits.visit,,30.12539,31.134035
Awsim,starfish.crumb.quilt,,30.12545,31.13358
Awwal Abbas Al Akkad,craziest.shifting.grad,,30.068712,31.33595
Awwal Abbas Al Akkad,soak.reset.drainage,,30.068344,31.336617
Awwal Abbas Al Akkad,stolen.corded.bind,,30.068491,31.335915
Awwal Faisal,dividers.thing.zeal,,30.013945,31.199232
Awwal Makram Ebeid,include.fractions.swarm,,30.069315,31.34371
Awwal Makram Ebeid,mainland.owned.swift,,30.069544,31.343733
Awwal Makram Ebeid,regal.married.editor,,30.06799,31.34375
Awwel Al Eshreen (Zenin),baseballs.airports.followers,,30.030329,31.183424
Awwel Al Zawya Bus Station,bells.occupations.cleans,,30.092579,31.275888
Awwel Al Zawya Bus Station,climbing.matchbox.treatable,,30.092993,31.276062
Awwel Al Zawya Bus Station,lawfully.heavy.joyously,,30.092615,31.275766
Awwel Al Zawya Bus Station,maximum.singles.logbook,,30.093048,31.275934
Awwel Al Zawya Bus Station,registers.pillows.spins,,30.093092,31.276104
Awwel Al Zawya Bus Station,seagulls.ulterior.crust,,30.093498,31.27626
Azhar University City for Boys,ally.cable.selection,,30.05033,31.315704
Azhar University City for Boys,decorator.dices.group,,30.050077,31.316458
Azhari Institute - Ahmed Helmy St,crumple.learns.these,,30.069838,31.253277
B Tech - Ahmed Oraby St,health.device.systems,,30.067122,31.19948
B Tech - Ahmed Oraby St,unwraps.heightens.tagging,,30.067488,31.199842
Bab Al Fotouh - Al Gamalia,responded.paying.runner,,30.05598,31.262964
Bab Al Fotouh - Al Gamalia,squeaking.afford.slanting,,30.056015,31.263086
Bab Al Karim Mosque - Nahya,caressed.means.mobile,,30.044662,31.181973
Bab Al Karim Mosque - Nahya,glance.serious.types,,30.04473,31.181976
Bab Al Khalq - Qalaa St,bluffing.cafe.stance,,30.039648,31.253832
Bab Al Nasr- Al Gamalia,reply.sidelined.curvy,,30.054354,31.26539
Bab Al Nasr- Al Gamalia,stormy.disposal.crossings,,30.054308,31.265255
Bab Al Shaaria Square,axed.trout.upwardly,,30.054953,31.257505
Bab Al Shaaria Square,conductor.cuter.carpets,,30.054777,31.257803
Bab Al Shaaria Square,warmers.besotted.exhaling,,30.055357,31.257668
Bab Al Shaereyya Girls Elementary School,teachers.overlooks.sapping,,30.061977,31.261244
Bab Al Shaereyya Hospital,mouse.apart.catching,,30.060572,31.26049
Bab Al Sheareyya Metro Station,until.abundance.puppy,,30.053122,31.255285
Badr,combative.amended.arrival,,30.135027,31.734587
Badr,spin.napping.quickened,,30.135859,31.735222
Badr,wingspans.indecency.softener,,30.135347,31.735176
Badr Land,oppose.texted.clef,,30.128847,31.36723
Badr Land,owned.soils.guess,,30.129065,31.367178
Badr Pharmacy - Helwan Courniche,chugging.ranked.works,,29.81646,31.30071
Badr Pharmacy - Helwan Courniche,notifying.blunders.gobbling,,29.816504,31.30059
Badr Waste Area,diagonally.skims.extroverts,,30.132702,31.706966
Badr Waste Area,ferries.richly.endorphin,,30.132751,31.70702
Badrasheen - Moneeb Bus Station,schooling.avoid.changing,,29.852234,31.277987
Badrasheen Bus Station,websites.boarded.insisting,,29.847404,31.276052
Badrashen,eggplants.testers.fortunate,,29.84522,31.276886
Bahteem,emperor.grinders.liberated,,30.157246,31.280693
Bahteem,motorist.emptied.glove,,30.157566,31.280933
Bahteem Specialized Hospital For Surgery,armful.inert.landowner,Bahteem Specialized Hospital for surgery 'Northbound',30.14473,31.277905
Bahteem Specialized Hospital For Surgery,glance.push.reporters,,30.144743,31.277752
Bahteem Square Station,ketchup.contacts.impulsive,,30.141333,31.277658
Bahteem Square Station,occur.nowadays.spout,,30.141485,31.27754
Banha University - Obour,breed.firewall.drives,,30.244682,31.459343
Bank Al Etihad - South Teseen Street,conspired.dressings.marching,,30.01639,31.420664
Bank Area (Bonook) - 5th Settlement,moguls.pictured.rural,,30.016405,31.427969
Bank Area (Bonook) - 5th Settlement,recline.burden.snuggle,,30.016113,31.427958
Banque Misr - Abbas Al Akkad,bonfires.often.native,Abbas Akkad 'Southbound',30.058466,31.337744
Banque Misr - Abbas Al Akkad,breathy.regal.intent,Abbas Akkad 'Northbound',30.058485,31.337973
Banzion - Masarra,slowness.series.unleashed,,30.071722,31.244959
Barageel,falters.weary.nurture,,30.075079,31.163925
Barageel,panic.newsstand.jetting,,30.07496,31.163914
Barageel (Ring Road),failed.train.bleaker,,30.072031,31.175682
Barageel (Ring Road),sprain.profiled.pebble,,30.071934,31.176071
Barageel (Ring Road),stared.expecting.fried,,30.072113,31.175388
Barageel (Ring Road),sulked.bypassed.silver,,30.07199,31.175827
Baron Mall Pedestrian Bridge,models.skim.variously,,29.981976,31.338408
Baron Mall Pedestrian Bridge,washable.bristle.magnetic,,29.982088,31.3386
Basateen,careful.gains.deodorant,,29.991135,31.28123
Basateen,file.apron.tweezers,,29.991308,31.282515
Basateen Police Station,amounting.froth.blanket,,29.991611,31.266865
Basateen Steps - Ring Road,obliging.blog.blaring,,29.990417,31.266972
Basha Square,shadow.live.framework,,30.020788,31.225475
Basha Square,signed.snack.dare,,30.020779,31.225552
Bashteel - Ring Road,economics.potential.posts,,30.084095,31.19193
Bashteel - Ring Road,proudest.originals.pouch,,30.082924,31.189302
Bashteel - Ring Road,stocked.ridiculed.spearing,,30.084217,31.191805
Bashtil,packets.extensive.tweed,,30.082932,31.189148
Bashtil,painting.audio.beauty,,30.08335,31.188828
Bashtil El Balad,deflate.event.providing,,30.087393,31.183043
Batrawy - Abbas Al Akkad,defensive.slurred.varieties,Batrway - Abbas Akkad 'Northbound',30.061913,31.337553
Batrawy - Abbas Al Akkad,helps.pursue.rewarded,Batrway - Abbas Akkad 'Southbound',30.06189,31.337206
Bayt Al Karam Al Shamy - Haram Street,heckler.secrets.replayed,,29.997438,31.169321
Bein Al Sarayat Youth Center,pollution.brothers.chopper,,30.029305,31.202393
Beirut Square - Korba,crouches.dwelled.beads,,30.093054,31.32753
Berm Al Tounsi St - Abou Al Reesh,spits.swordfish.takeover,,30.025824,31.240131
Bisco Misr - Al Zaytoun,radiating.rummage.scars,,30.104403,31.29614
Bisco Misr - Al Zaytoun,shelter.recorders.position,,30.104233,31.296091
Bloom Bank - South Teseen Street,certainty.perusing.troubled,,30.016375,31.417522
Board of Trustees (Magles Al Omanaa) - 6th of October,move.permit.entertainer,Board of Trustees of 6th of October City 'Northbound',29.994495,30.959768
Bohooth Bus Station,mouth.escalates.worked,,30.035402,31.198805
Bohooth Bus Station,polar.outraged.judge,,30.035524,31.19872
Bostan Street,skews.schematic.escalated,,30.046112,31.235739
Boury Square - 5th Settlement,headliner.behave.publish,,30.007502,31.411446
Boury Square - 5th Settlement,midwinter.husky.musician,,30.00785,31.41215
Brazil St- 26th of July,bluffs.claw.regarding,,30.060143,31.222118
Brazil St- 26th of July,deals.harnessed.exams,,30.05999,31.22204
Btech - Masr Wal Sudan St,spindles.scenes.admit,,30.083288,31.281857
Bulaq Dakrur,blogging.steady.unpacked,,30.042736,31.192738
Bulaq Dakrur,unclaimed.windpipe.nicely,,30.042423,31.192314
Bulaq Dakrur,vessel.lollipop.metals,,30.04295,31.192608
Bulaq Dakrur Bus Station,elect.sticks.gaps,,30.040995,31.194695
Bulaq Dakrur Bus Station,entitles.spending.fallback,,30.040966,31.19463
Bulaq Dakrur Bus Station,excusing.stormy.giraffes,,30.040771,31.194324
Bulaq Dakrur Nahya - East,prop.radiated.sweetly,,30.0429,31.193829
Bulaq Dakrur Nahya - East,reduce.options.testy,,30.042837,31.193748
Bus Stop 43 (Matareya),advice.tradition.tailwind,,30.126816,31.316278
CAPMAS,betraying.talkers.device,,30.079588,31.315157
CAPMAS,pocketed.twice.gurgled,CAPMAS 'Eastbound',30.079384,31.315372
CAPMAS,spillage.revealing.abolish,,30.07962,31.315039
CIB - Al Hegaz,dried.done.grudge,,30.105326,31.332306
CIB - Al Hegaz,rigs.tomorrow.lows,,30.10551,31.332254
CIB - South Teseen Street,firepower.burst.crinkled,,30.016392,31.423029
CTA Garage - Heliopolis,cleanser.radiates.salads,,30.128471,31.361689
CTA Garage - Heliopolis,with.iron.corrosive,,30.129723,31.361444
Cairo Airport Bus Station,starfish.pipe.trailing,,30.120197,31.398315
Cairo Airport Bus Station,windy.long.munch,,30.119501,31.397856
Cairo Alexandria Agriculture Road Exit - Ring Road,insist.shifters.equipping,,30.149597,31.23345
Cairo Club - Opera St,beaker.landlady.juggle,,30.040873,31.222578
Cairo Club - Opera St,thick.wordplay.gladiators,,30.040783,31.222666
Cairo Economic Court - Ring Road,applied.wreck.grants,Cairo Economic Court 'Eastbound',29.98782,31.303703
Cairo Economic Court - Ring Road,inversion.songs.squirts,,29.988321,31.303864
Cairo Economic Court - Ring Road,laces.dividing.showrooms,,29.987993,31.30374
Cairo Economic Court - Ring Road,sunblock.pads.unsecured,,29.988125,31.303791
Cairo Fair Metro,newspaper.hood.earliest,,30.073399,31.301569
Cairo Fair Metro,shampoo.superhero.props,,30.073685,31.301535
Cairo Festival City - Ring Road,snoring.dislikes.resorting,,30.025076,31.402676
Cairo Festival City - South Teseen Street,guesswork.suffix.calculate,,30.01601,31.40746
Cairo Festival City - South Teseen Street,trek.seriously.ogre,,30.016441,31.407455
Cairo Festival City Pedestrian Bridge,modifies.panic.implanted,,30.025211,31.40099
Cairo Pyramids Hotel - Cairo Alex Desert Rd,congratulations.value.uppermost,,29.992382,31.125557
Cairo Pyramids Hotel - Cairo Alex Desert Rd,estimated.release.blossom,,29.992449,31.125637
Cairo Security Directorate (Modereyet Amn Al Qahera),replaying.townhouse.legs,,30.043674,31.2528
Cairo Security Directorate (Modereyet Amn Al Qahera),selection.footpath.clouds,,30.043795,31.252546
Cairo Stadium,pages.crispy.protester,,30.06451,31.306364
Cairo Stadium,profiled.breezes.continued,,30.064629,31.306618
Cairo University - Commerce Gate,instilled.sticky.spreads,,30.028393,31.20555
Cairo University - Commerce Gate,nosedive.albatross.hoot,,30.028505,31.205507
Cairo University Applied Arts,reverted.factoring.torches,,30.029356,31.208708
Cairo University Bridge,tributes.held.defaults,,30.028526,31.216534
Cairo University Bridge,whiplash.cookies.bugs,,30.028337,31.216599
Cairo University Main Gate - Giza,merchant.island.dabbling,,30.027258,31.210968
Cairo University Main Gate - Giza,sensibly.learning.rollers,,30.027906,31.210682
Cairo University Main Gate - Gize,unlucky.secures.quitter,,30.027864,31.210907
Cairo University Metro,influencing.scorched.boot,,30.027006,31.200594
Cairo Universty Metro Station,cobbled.whips.tumblers,,30.025322,31.201765
Cairo Universty Metro Station,rifled.transcribes.shirtless,,30.025337,31.201849
Car Market - Nasr City,blotting.thatched.ultra,,30.047867,31.36684
Car Market - Nasr City,strongly.inversion.passion,,30.047625,31.366188
Carrefour - Gazaer St,situation.fillings.educated,,29.983755,31.273975
Carrefour - Obour,drooling.scouts.tickling,,30.171757,31.475435
Carrefour - Obour,masterpiece.tabs.shall,,30.172138,31.47496
Carrefour - Ring Road,ghosts.reserve.packets,,29.984188,31.318043
Carrefour - Ring Road,pink.hothouse.reform,,29.984005,31.318106
Carrefour - Tora,imparting.recoup.target,,29.928919,31.281488
Carrefour - Tora,styled.reception.sketching,,29.92887,31.281387
Catholic Cemetery - Misr Al Qadima,outright.conveying.stressed,,30.01314,31.23314
Catholic Cemetery - Misr Al Qadima,rhino.verifying.refilled,,30.013182,31.233059
Cemeteries - Maadi,trip.uncle.portable,,30.021427,31.345001
Center Cairo Governorate Information Networks,zest.quietly.birdcage,,30.095085,31.382605
Centeral Al Matariya,jolt.evoke.scarred,,30.129805,31.312162
Centeral Heliopolis - Gesr Al Suez,selects.helpfully.hardback,,30.104343,31.321579
Centeral Heliopolis - Gesr Al Suez,venues.diverts.detriment,,30.104212,31.321724
Central Al Fustat,sundial.trimmer.flops,,30.003319,31.242682
Central Al Fustat,surfer.remission.shiver,,30.003103,31.242472
Central Bank - Ataba,barstool.wiped.skate,,30.05546,31.246712
Central Bank - Ataba,persuade.lifeguard.clipped,,30.05622,31.246532
Ceramica Cleopatra - Sheikh Zayed,presumes.leave.verge,Ceramica Cleopatra 'Westbound',30.025467,31.01694
Child's Garden - Ahmed Fakhry,clouding.importers.highways,,30.062132,31.34957
Church of St George - Kotseika,cone.thirsty.multiples,,29.935043,31.278334
Church of St George - Kotseika,nerd.captive.free,,29.935076,31.278421
City Mall - Al Shorouq,closet.forwarded.grow,,30.18022,31.599415
City Mall - Al Shorouq,voted.master.community,,30.18048,31.599371
City Stars Mall,fever.riverbank.senior,,30.073524,31.339214
City Stars Mall,rice.responses.valley,,30.073555,31.338928
Civil Registry - Haram Street,befitting.something.cherish,,29.999216,31.174555
Civil Registry - Haram Street,conforms.taxpayers.stews,,29.999353,31.174511
Civil Registry - Imbaba,backyards.explain.aspect,Civil Registry - Imbaba 'Southbound',30.079487,31.223639
Civil Registry - Imbaba,slim.measuring.weeded,Civil Registry - Imbaba 'Westbound',30.0796,31.223648
Concord Al Salam Hotel - Gesr Al Suez,delusions.handyman.swooning,,30.124,31.346899
Concord Al Salam Hotel - Gesr Al Suez,locate.commutes.keyboard,,30.124092,31.346834
Concord Plaza - New Cairo,arming.sunblock.spell,,30.025543,31.485273
Concord Plaza - New Cairo,unheated.waged.contact,,30.025213,31.485222
Conrad Hotel,pesky.starting.clinic,,30.065182,31.227211
Conrad Hotel,reefs.overjoyed.defends,,30.065123,31.227304
Constitutional Court,tame.copper.removals,,29.969234,31.238335
Coop Gas Station - Cairo Airport,concluded.thrones.servicing,,30.12299,31.398748
Coop Gas Station - Helwan Courniche,ears.sobered.timed,,29.808475,31.301804
Coop Gas Station - Helwan Courniche,wake.resonated.visions,,29.808403,31.301712
Coop Gas Station - Nasr Al Islam Square,changed.supposes.crouch,,30.088139,31.253555
Coop Gas Station - Om Bayoumi,nervy.open.foot,,30.129553,31.25117
Coop Gas Station - Om Bayoumi,waggled.regret.foods,,30.12967,31.251339
Coptic Hospital,infants.cyber.observer,,30.063524,31.251974
Coptic Hospital,stack.spillage.reshaping,,30.063448,31.252092
Corner Stone - Imbaba,boggles.punctual.lavished,,30.080658,31.219267
Corner Stone - Imbaba,limitless.shelved.hillside,,30.080744,31.219303
Cottonil Factory - Gesr Al Suez,prune.trainer.lunge,Badr Park 'Eastbound',30.130552,31.372196
Credit Agricole - Al Mansoreya Road,stub.adjuster.policy,,29.987387,31.132284
Criminal Evidence Registery - Abaseyya,boxing.widget.bulky,,30.071861,31.287453
Criminal Evidence Registery - Abaseyya,chatting.thread.jacuzzi,,30.071777,31.287271
Criminal Evidence Registery - Abaseyya,reinstate.spades.breeding,,30.071692,31.287203
Criminal Evidence Registery - Abaseyya,senders.toenail.goodbye,,30.071224,31.28722
Criminal Evidence Registery - Abaseyya,straddled.leap.imported,,30.07184,31.28733
Crystal Asfour - Masaken Al Wehda,cages.drawn.roughest,,30.120337,31.25831
Crystal Asfour - Masaken Al Wehda,yelled.soft.tribe,,30.120152,31.258314
Czesch Republic Embassy - Dokki,idealist.intestine.guides,,30.030886,31.212473
Czesch Republic Embassy - Dokki,outlined.deeds.lines,,30.031044,31.21231
Dabsha - Al Zaytoun,camcorder.edit.blitz,,30.106709,31.287733
Dabsha - Al Zaytoun,liquid.staple.wages,,30.106583,31.287693
Dar Al Foad Hospital - 6th of October,scouts.commit.pausing,Dar Al Foaad Hospital 'Northbound',29.99922,30.96702
Dar Al Mohandeseen Club - Nile Courniche,attending.wrong.spoons,,29.864475,31.291664
Dar Al Mohandeseen Club - Nile Courniche,pricing.dreaming.typified,,29.864386,31.291838
Dar Al Moshah - Heliopolis,puppy.different.roaring,,30.078035,31.300392
Dar Al Moshah - Heliopolis,wobbles.boat.birds,,30.078022,31.300245
Dar Al Salam,lawns.sing.coasting,,29.981028,31.231722
Dar Al Salam Police Station,craftsman.built.shepherdess,,29.972027,31.24689
Dar Al Salam Police Station,rats.galleries.tissue,,29.972084,31.247
Dar El Salam Bus Station,transmits.blemishes.spared,,29.984074,31.238018
Dar Misr Square - Al Shorouq,asteroid.sending.retraced,Dar Misr Square Westbound,30.1646,31.640326
Dar Misr Square - Al Shorouq,chips.superhero.sprinter,Dar Misr Square Eastbound,30.164255,31.64037
Darb Al Saqia - Manshiyat Nasser,charities.escorting.vibrates,,30.04743,31.281578
Darb Al Saqia - Manshiyat Nasser,hurls.laugh.actors,,30.047285,31.281683
Darraasa Traffic Department,lifeboats.spine.gifts,,30.052475,31.269976
Darraasa Traffic Department,strictly.mixing.prospers,,30.052637,31.270203
Dawaran Shubra,chucks.slices.seagulls,,30.080523,31.24572
Degla Azhari Language School - Zahraa Al Maadi,cleanser.turkeys.coverage,,29.964096,31.283844
Degla Azhari Language School - Zahraa Al Maadi,narrates.dodges.stretcher,,29.963974,31.283764
Dental Hospital - Al Manial,ecologist.reporters.overdrive,,30.028442,31.226645
Diamonds Mall - 6th of October,daydreams.truly.spearing,Diamonds Mall 'Southbound',29.97673,30.944956
Didi Mall - 1st Settlement,scratches.currently.going,,30.070581,31.452255
Doctors Tower - Nasr City,guarding.fittingly.punks,Doctors Tower Eastbound,30.055258,31.352192
Doctors Tower - Nasr City,incomes.grin.surpassed,Doctors Tower Westbound,30.055378,31.352175
Documentation Center - Bolak,forgotten.partners.person,,30.066675,31.22707
Documentation Center - Bolak,neutron.tracking.pesky,,30.066793,31.226904
Dokki,deflection.fillers.flitting,,30.03739,31.211329
Dokki,servers.irony.decays,,30.037415,31.211552
Dokki Metro Station,sudden.friends.distracts,,30.038609,31.212912
Dokki Metro Station,tucked.succeed.marble,,30.038507,31.212973
Downtown Mall,kinds.geek.commander,,30.016325,31.41264
Downtown Mall,sometime.giants.adjust,,30.016045,31.4115
Dusit Hotel,chum.encourage.eating,,30.025146,31.456976
Dusit Hotel,january.castle.slowness,,30.025436,31.456917
Duty Free - Gameat Al Dowal St,crucially.merchant.offers,,30.047161,31.196367
Duty Free - Gameat Al Dowal St,pampered.occur.strain,,30.04732,31.196085
Dwidar St - Hadayeq Al Qobba St,pigment.forgotten.method,,30.0837,31.28441
ENPPI,breakfast.country.things,,30.044985,31.340738
ENPPI,chromatic.known.error,,30.044653,31.339403
EPx Logistics For Transportation And Warehousing - Obour,haunts.brothers.unspoiled,,30.260643,31.472372
EPx Logistics For Transportation And Warehousing - Obour,prospered.stand.elections,,30.260561,31.472498
Eastern Weavers - Moqattam,clarifies.outs.samplers,,30.010664,31.334198
Eastern Weavers - Moqattam,sprouting.bowls.native,,30.010893,31.334133
Education Directorate - Helwan,link.silk.fruitcake,,29.853304,31.295296
Education Directorate - Helwan,snowmen.spaces.dictation,,29.853361,31.295443
Egypt Air Hospital,acids.briefer.safety,,30.091661,31.34855
Egypt Air Hospital,waged.trespass.purified,,30.091543,31.348131
Egypt Air Steps - Ring Road,grumbles.postings.employ,,29.98252,31.17862
Egypt Air Steps - Ring Road,nicknames.ideal.treatable,,29.982649,31.178473
Egyptian Agricultural Bank - Giza,motivator.purple.expressed,,30.008606,31.209003
Egyptian Agricultural Bank - Giza,wiping.ulterior.mailers,,30.008642,31.209127
Egyptian Parlimant,lunged.conveying.pedicure,,30.041445,31.235617
Egyptian Russian University,continental.handwritten.illustration,,30.139751,31.717985
Egyptian Russian University,dedicated.impairments.unerring,,30.139896,31.718245
Egyptian Telecom Club - Autostrad Maadi,nurses.workers.ferrying,,29.969759,31.289045
Egyptian Telecom Club - Autostrad Maadi,snares.code.billiard,,29.969809,31.288832
El Batran Exit,dockers.spades.excuse,,29.975008,31.155724
El Batran Exit,finds.fool.streak,,29.974892,31.155767
El Kafr (Birak Al Khiyam),freshest.ahead.bristle,,30.045744,31.157124
El Khanka Mental Health Hospital,fuss.gobbling.deciding,,30.225204,31.367352
El Warsha (Ezbet Al Nakhl),health.wonderful.disco,,30.141405,31.343824
Elecrticity Hospital - Suez Rd,aquatics.averages.standards,,30.07883,31.372301
Elecrticity Hospital - Suez Rd,tested.joystick.attends,,30.079018,31.372335
Electricity Distribution Co - Isaaf,floating.expansion.stuffing,,30.054348,31.236347
Electricity Distribution Co - Isaaf,hammer.should.deck,,30.054674,31.235754
Emad El Deen St - 26th of July St,clown.workforce.defectors,,30.052612,31.244377
Emerald - New Cairo,offer.shampoo.eyepieces,,30.052742,31.430485
Experimental School - Bahteem,paused.household.shuttling,,30.141401,31.275148
Experimental School - Bahteem,risen.models.durations,Experimental School Bahteem 'eastbound',30.141304,31.27523
Ezbet Al Baydaa Steps - Ring Road,bumping.friend.towels,Ezzbet Al Bayda steps 'Westbound',30.163185,31.32703
Ezbet Al Baydaa Steps - Ring Road,operating.screaming.eggplants,Ezzbet Al Bayda steps 'Eastbound',30.162958,31.327883
Ezbet Al Mofti Steps - Ring Road,daytime.jumpy.gossiping,,30.0884,31.195387
Ezbet Al Mofti Steps - Ring Road,radiated.fire.huddling,,30.088337,31.195547
Ezbet Al Nakhl,abruptly.warm.strikers,,30.138672,31.326351
Ezbet Al Nakhl,leader.swerves.putts,,30.139065,31.32537
Ezbet Al Nakhl,loitering.movies.situation,,30.138702,31.326279
Ezbet Anwar Steps - Ring Road,handy.milder.ballooned,,30.150188,31.265081
Ezbet Anwar Steps - Ring Road,tiptoes.paddlers.orange,,30.15035,31.265003
Ezbet Kheirallah Steps 1 - Ring Road,press.lifeboats.cooks,Ezzbet Khayr Allah 'Eastbound',29.992666,31.243715
Ezbet Kheirallah Steps 1 - Ring Road,sprinkler.tablets.plotting,Ezzbet Khayr Allah Westbound',29.992844,31.243715
Ezbet Kheirallah Steps 2 - Ring Road,clash.assembles.cubs,,29.991568,31.251917
Ezbet Kheirallah Steps 2 - Ring Road,picnic.refills.status,,29.99172,31.251968
Ezbet Kheirallah Steps 3 - Ring Road,catchers.losses.school,Ezzbet Khayr Allah steps 'Westbound',29.990322,31.257889
Ezbet Kheirallah Steps 3 - Ring Road,youthful.chess.bound,Ezzbet Khayr Allah steps 'Eastbound',29.989767,31.260696
Faculty of Agriculture - Ain Shams University,corkscrew.guards.curls,Faculty Of Agriculture - Ain Shams University 'Northbound',30.111708,31.248245
Faculty of Agriculture - Ain Shams University,cries.heat.sweetly,Faculty Of Agriculture - Ain Shams University 'Southbound',30.112217,31.248306
Faculty of Agriculture - Ain Shams University,delays.feels.snowy,,30.111639,31.247992
Faculty of Agriculture - Cairo University,lure.holdings.spectacle,,30.019436,31.211624
Faculty of Agriculture - Cairo University,officials.tadpole.cheer,,30.019444,31.211748
Faculty of Agriculture Ain Shams Bus Station,moon.geologist.nozzles,,30.114862,31.249302
Faculty of Agriculture Ain Shams Bus Station,restless.wink.threading,,30.115358,31.250252
Faculty of Agriculture Ain Shams Bus Station,self.talker.sensibly,,30.115234,31.250093
Faculty of Engineering - Azhar University,overdone.promotes.lorry,,30.064007,31.286402
Faculty of Engineering - Azhar University,punks.parading.slips,,30.064156,31.286692
Faculty of Engineering - Cairo University,slurping.messed.assorted,,30.024944,31.210882
Faculty of Engineering - Cairo University,trade.easels.messy,,30.02497,31.211037
Faculty of Medicine - Ain Shams University,removes.furnish.jolt,,30.077158,31.281176
Faisal Bank - Othman Bin Affan St,interests.ridiculed.many,,30.09936,31.34113
Faisal Bank - Othman Bin Affan St,mailer.squabbles.clay,,30.099226,31.341227
Faisal Exit - Saft El Laban Axis,zone.directors.charging,,30.027088,31.200535
Faisal Islamic Bank - Tahrir St,modifies.votes.eyelash,,30.039612,31.217943
Faisal Islamic Bank - Tahrir St,twig.brimmed.growth,,30.03976,31.21816
Faisal Metro Station,custodian.heads.vitamins,,30.016756,31.204502
Faisal Microbus Station,stow.responded.belt,,29.99369,31.14715
Faisal Street - Al Marioteya Road,camper.painting.sleepers,,29.993595,31.147207
Faisal Street - Al Marioteya Road,landlords.furnish.blunders,,29.99388,31.147522
Faisal Tawabek,nips.clenching.against,,29.998194,31.159483
Faisal Tawabek,paraded.tempting.dentistry,,29.998377,31.159418
Falcon School - Al Shorouq,oxidation.observe.bedroom,,30.135359,31.663897
Falcon School - Al Shorouq,voltage.eyelashes.tinkle,,30.135773,31.663792
Farhety Hall - Port Said St,disgraced.rare.setting,,30.078896,31.26989
Farhety Hall - Port Said St,feared.waggled.turns,,30.078915,31.270004
Farouq Square,drooling.dunk.browsers,,29.957415,31.255957
Farouq's Corner Musuem - Helwan,boggles.intervene.amps,,29.84686,31.295645
Fayda Kamel,throwaway.page.suggested,,29.976025,31.258179
Fayda Kamel,typical.bloom.crowbar,,29.976044,31.258282
Ferdous - Rod Al Farag,sweetened.wardrobe.explains,,30.078747,31.235851
Fiat Service Center - Obour,passenger.generals.pokers,,30.179096,31.471952
Fiat Service Center - Obour,pinch.scooped.pegs,,30.179071,31.472136
Filfil Mosque (Bashtil),emulating.leafing.endearing,,30.082487,31.193096
Filfil Mosque (Bashtil),spirit.circus.mindset,,30.08259,31.193047
Fom Al Khalig,applause.painting.cuddling,,30.023077,31.230179
Fom Al Khalig,treaties.saturate.chips,,30.022871,31.2309
Fom Al Khalig Police Station,splendid.shadowed.originate,,30.024158,31.232475
Free Zone - Nasr City,stove.moon.vessel,Free Zone Westbound,30.035183,31.347153
Free Zone - Nasr City,workflow.much.mixed,Free Zone Eastbound,30.035078,31.347145
Fustat Market,muffin.rankings.saddens,,30.009237,31.23143
Fustat Market,weeks.reporting.politics,,30.009287,31.231325
Future School - Nasr City,prune.stow.mugs,,30.045734,31.347544
Future School - Nasr City,remarried.famous.fewest,,30.045538,31.347553
Future University in Egypt (FUE),fussed.scorching.trucks,FUE Westbound,30.025515,31.491087
Future University in Egypt (FUE),many.hillsides.hack,,30.025234,31.490547
Galaa Bridge End - Dokki,childcare.various.discusses,,30.04019,31.220049
Galaa Bridge End - Dokki,dream.prank.suggested,,30.040054,31.220165
Galal Motors - Basateen,gossiping.debt.just,,29.989876,31.271252
Galal Motors - Basateen,solicitor.alternate.condense,,29.989971,31.271044
Galleria 40,idealist.pushing.fools,,30.01535,31.00181
Gamaa Street - Obour,acclaimed.cigar.tonic,,30.2109,31.457462
Gamal Abd Al Nasser Metro Station,flux.eagles.additives,,30.053526,31.23882
Gamal Abd Al Nasser Metro Station,long.helpfully.output,,30.053915,31.23769
Gamal Abd Al Nasser Square - 5th Settlement,novel.zapped.scorching,,29.991102,31.431713
Gamal Abd Al Nasser Square - 5th Settlement,survive.sharpness.dining,,29.99037,31.430653
Gamal Abd Al Nasser Steps - Ring Road,promises.spillage.placed,,30.072231,31.175898
Gamal Abd Al Nasser Steps - Ring Road,slings.raven.flood,,30.072258,31.175756
Garage Imbaba - Madinat Al Talibat,frosted.remains.untruth,,30.07137,31.200375
Garage Imbaba - Madinat Al Talibat,octagon.overlook.disposing,,30.071438,31.20031
Gas - 5th Settlement,gilding.undertook.plunge,,30.01481,31.416227
Gas Tech Gas Station - Faisal St,indulgent.bunk.dated,,29.998543,31.15986
Gas Tech Gas Station - Faisal St,seeing.loving.blocks,,29.998363,31.159966
Gawad Hosny St - Anwar Al Sadat St,suits.unloads.ranted,,29.814964,31.380407
General Administration for Zenin Filteration,blocking.inflating.vitals,,30.030533,31.183414
General Administration for Zenin Filteration,thousands.anyway.tipping,,30.030441,31.18342
Genuis International School - Kerdasa,reserves.commutes.steadily,,30.009867,31.11572
Genuis International School - Kerdasa,trickster.worldwide.inert,,30.009825,31.115635
Gesr Al Suez - Al Qobba,bright.sinkhole.shaves,,30.095554,31.310822
Gesr Al Suez - Al Qobba,gilding.longingly.madder,,30.095737,31.310823
Gesr Al Suez - Taha Hussein,shed.taster.drumbeat,,30.13218,31.376968
Ghamra,bleach.playroom.stapled,,30.068094,31.264086
Ghamra,imperious.blotchy.players,,30.068172,31.263996
Ghamra Bridge,pinches.contrived.melon,,30.068024,31.264788
Ghamra Bridge,titles.elaborate.encodes,,30.068064,31.26467
Ghamra Bridge - End,charted.plugs.revived,,30.07322,31.267376
Ghamra Bridge - Start,captures.fired.sneezing,,30.073153,31.26721
Girls' College - Ain Shams University,prominent.rafters.rewarded,Girls' College 'Northbound',30.08095,31.327314
Girls' College - Ain Shams University,retailing.hopefully.fracture,Girls' College 'Southbound',30.081083,31.327084
Giza Bridge - End - Cairo University,exhale.continues.spurted,,30.017714,31.211979
Giza Bridge - End - Cairo University,report.funky.third,,30.017687,31.211834
Giza Courthouse Complex,equity.dribble.swanky,,30.010727,31.209091
Giza Courthouse Complex,sounding.reckons.purchaser,,30.010729,31.208992
Giza Governorate Authority,dressing.beak.finely,,30.008718,31.199814
Giza Governorate Authority,variation.synthetic.broth,,30.008799,31.19949
Giza Helwan Bus Station,finishers.sensitive.stitching,,30.015514,31.215265
Giza Metro Station,skies.remains.trade,,30.014168,31.206236
Giza Park - Bashtil,shirt.ridiculed.fully,,30.077002,31.193491
Giza Square,ballooned.client.rejects,,30.015612,31.212263
Giza Square,blessing.profiled.stocks,,30.016607,31.21213
Giza Square,expert.valued.against,,30.014404,31.209734
Giza Square,invented.boats.scrapping,,30.016932,31.213783
Giza Square,lessening.afternoon.cornfield,,30.015663,31.211855
Giza Square,magma.result.dupe,,30.0167,31.211948
Giza Square,proclaims.noise.shortens,,30.016989,31.213684
Giza Square,ranges.overjoyed.elbow,,30.015512,31.212114
Giza Square,upwardly.dimension.hexes,,30.015362,31.213758
Giza Square,wishing.fewest.midwinter,,30.015413,31.212458
Golf Square - 5th Settlement,blasted.quaking.prayers,,29.99893,31.405945
Greek Hospital,quantity.joyously.zoom,,30.066671,31.280775
Green Hills Club,access.retina.hushed,Green Hills Club Westbound,30.163464,31.634192
Green Hills Club,random.walked.simulations,Green Hills Club Eastbound,30.163193,31.634195
Habitat - Obour,massaged.librarian.imposes,,30.188974,31.465927
Habitat - Obour,sharpened.promotion.handyman,,30.189232,31.465961
Hadaba Wosta Bus Station,deploying.rats.thrashed,,30.009562,31.338305
Hadaba Wosta Bus Station,losing.handed.atoms,,30.010624,31.339434
Hadaba Wosta Bus Station,scored.gain.marching,,30.00973,31.339993
Hadabet Al Ahram,spenders.headline.defected,,29.971304,31.108694
Hadabet Al Ahram,usages.modern.crypt,,29.971317,31.108582
Hadayek Al Ahram Gate 3,quirky.regret.locked,,29.948486,31.095268
Hadayek Al Qobba Station,breezy.stirs.skirt,,30.087132,31.289618
Hadayek Al Qobba Station,catching.exotic.cheese,,30.087095,31.29037
Hadayek Al Qobba Youth Center,bind.yoga.regrowth,,30.08954,31.285679
Hadayek Al Qobba Youth Center,often.woods.scribbled,,30.089434,31.285616
Hadayek Al Qobba Youth Center,scrum.sunblock.aviation,,30.089594,31.285381
Hadayeq Al Qobba Police Station,oval.dives.lobbed,,30.092829,31.28806
Hadayeq Al Zaytoun School - Matareya St,than.lighters.mass,,30.109743,31.30392
Hadayeq Al Zaytoun School - Matareya St,winter.robes.novel,,30.109734,31.304007
Hadayeq Helwan Bus Station,costly.stiffly.training,,29.892954,31.298574
Hall 1 - Cairo Airport,rehearsal.according.perfect,,30.124722,31.40245
Hall 3 - Cairo Airport,cries.traps.tour,,30.12284,31.402615
Hall 4 - Cairo Airport,cowboys.woof.bypassed,,30.124031,31.397747
Haram Marioteya,menswear.electrode.sprouts,,29.989735,31.149443
Haram Marioteya,mingles.worlds.rocket,,29.98987,31.14934
Haram Marioteya,tiredness.fidgeted.quoted,,29.98991,31.149921
Haram Mashaal,hints.nuance.innovator,,29.987768,31.14377
Haram Mashaal,wriggle.innocence.bland,,29.987614,31.143818
Haram Mashaal - Al Mansoreya Road,bowls.baseballs.immune,,29.98681,31.141321
Haram Mashaal - Al Mansoreya Road,cured.king.project,,29.986696,31.141378
Haram Mashaal - Al Mansoreya Road,dabbing.puppy.daunted,,29.986578,31.141068
Haram Mashaal Bus Station,quoted.crop.examine,,29.987705,31.14034
Haram Mashaal Bus Station,ramps.icons.smaller,,29.987938,31.140657
Haram Talbeya Bus Station,beak.butter.limit,,30.001972,31.181414
Haram Talbeya Bus Station,reckoned.castle.revamping,,30.001793,31.181437
Haram Tunnel - Lebeny,chair.mourner.lied,,29.988,31.149021
Haram Tunnel - Lebeny,conspire.valued.survey,,29.987968,31.148926
Hareer St - Helwan,proud.nuance.golden,,29.841393,31.307898
Hareer St - Helwan,refuses.small.dressings,,29.841452,31.307997
Hawamdeyya Bus Station - Entrance,condition.legs.adults,,29.897238,31.270447
Hawamdeyya Bus Station - Entrance,winner.outwit.routs,,29.897247,31.270351
Health Affairs Department - Agouza,agreed.sizing.swordfish,,30.067818,31.193562
Health Affairs Department - Agouza,relatives.wooden.parked,,30.067879,31.193472
Health Insurance Hospital - Nasr City,point.unzipped.stable,,30.059467,31.326296
Health Insurance Hospital - Nasr City,vision.tickling.private,,30.05981,31.326027
Hearing and Speech Institute - Imbaba,mimic.salads.quaking,,30.081364,31.225246
Hearing and Speech Institute - Imbaba,warp.glare.slimmer,,30.081566,31.225447
Heliopolis Courthouse Complex,pats.foil.budding,,30.103706,31.328114
Heliopolis Courthouse Complex,persuade.relishes.contacts,,30.10415,31.328476
Heliopolis Hospital - Hegaz,forkful.entry.reap,,30.107437,31.336325
Heliopolis Hospital - Hegaz,hurray.belonging.stopwatch,,30.10716,31.336462
Heliopolis Sporting Club,blaze.shock.conveying,,30.090183,31.315754
Heliopolis Sporting Club,walking.grips.limbs,,30.089014,31.31745
Heliopolis Square,elephant.touchy.unstated,,30.108374,31.33812
Heliopolis Square,winds.codes.mysteries,,30.108145,31.33883
Helmeyet El Zaitoun Metro,hamsters.airliners.teaching,,30.11298,31.314135
Helmeyet El Zaitoun Metro,sake.admit.suggested,,30.113127,31.31419
Helwan Bus Station,ditching.natural.tensions,,29.85348,31.331663
Helwan Mental Health Hospital,lyricist.fires.petition,,29.836367,31.335947
Helwan Mental Health Hospital,pull.abruptly.headlight,,29.836317,31.335808
Helwan Metro Bus Station,concerned.speeded.doors,,29.848576,31.333967
Helwan Metro Bus Station,deflect.overpower.terribly,,29.851938,31.334253
Helwan Metro Bus Station,monkey.fearfully.rocket,,29.84972,31.33528
Helwan Post Office Bus Station,gone.argue.ignore,,29.84743,31.33273
Helwan Post Office Bus Station,response.lamenting.weaved,,29.846409,31.334066
Helwan Public Club Bus Station,uppermost.gifts.turntable,,29.842035,31.335573
Helwan University,besotted.bullion.former,,29.869402,31.320698
Helwan University,widget.flows.blotchy,,29.869045,31.320093
Herafyeen Bridge - End,artist.marshes.chess,,30.138872,31.397068
Herafyeen Bridge - Start,tortoises.driver.foreheads,,30.138765,31.3972
Higher Institute For Hotels & Tourism - Sheraton,community.lizards.talents,,30.102913,31.380362
Higher Institute For Hotels & Tourism - Sheraton,exhales.timing.nutty,,30.102798,31.38019
Higher Institute Of Marketing Commerce & Information Systems,fishery.darts.workshop,,30.066242,31.450056
Hilton Ramses - Abd Al Moneim Riad,suffer.saga.factoring,,30.04995,31.23111
Holding Co. For Water & Wastewater (HCWW),measures.alternate.slower,,30.080078,31.230715
Holding Co. For Water & Wastewater (HCWW),punctual.forgiven.lifetimes,,30.080034,31.23081
Hospital 57357 - Magra Al Oyoun,areas.pure.baths,,30.025192,31.238302
Housing & Utilities Directorate - Giza,dressing.communal.landlady,,30.000895,31.204584
Huckstep,onto.ecologist.belief,,30.159626,31.468779
Huckstep,singles.diver.javelin,,30.15971,31.46868
Huckstep Bridge - End,grin.applauded.punters,,30.14311,31.403936
Huckstep Bridge - Start,recital.whoever.stolen,,30.143217,31.403751
Hussein Sedqy Mosque - Maadi,energetic.bedrooms.lamplight,,29.959015,31.251232
Hyper - Sheikh Zayed,shuttered.smashes.streamers,Hyper One - Me7war 'Eastbound',30.03007,31.024
Ibn Al Hakam Square - Heliopolis,imprinted.haggling.retail,,30.109776,31.320295
Ibn Al Hakam Square - Heliopolis,noun.lucky.bystander,,30.11032,31.32029
Ibn Khaldoun School - Heliopolis,disprove.womb.brisk,,30.118225,31.32025
Ibrahim Abdel Raziq St - Ain Shams St,shirtless.smoking.martini,,30.126406,31.320024
Ibrahim Al Afifi Alley - Mansoureyya Rd,dissolves.trek.chimp,,29.974213,31.145119
Ibrahim Al Afifi Alley - Mansoureyya Rd,rather.shifts.drill,,29.974167,31.14489
Ibrahim Al Rifaie School - 1st Settlement,clouds.comedians.halt,,30.070099,31.45631
Ibrahim Anwar Mosque - Al Zaytoun,anode.mammoths.subject,,30.103159,31.300596
Ibrahim Anwar Mosque - Al Zaytoun,scuba.powers.magazines,,30.103012,31.300531
Ibrahim Bek Bus Station,desiring.repayment.takeover,,30.136824,31.263384
Ibrahim Bek Bus Station,ruffle.materials.expanded,,30.13686,31.263197
Ibrahim Bek Youth Center,guesswork.knitted.fictional,,30.133253,31.262106
Ibrahim Bek Youth Center,inherits.badge.starts,,30.13321,31.26229
Icon For Construction And Development,cookers.dusts.attitudes,ICON for Construction and Development 'Southbound',29.893797,31.315569
Icon For Construction And Development,qualifier.chill.valuables,ICON for Construction and Development 'Northbound',29.893703,31.31569
Ideal Standard - Nasr Road,liquid.fixture.name,,30.091213,31.372532
Ideal Standard - Nasr Road,specifies.jumped.wanting,,30.091053,31.372591
Ikea - CFC,musically.leaves.limit,,30.03103,31.403511
Imam Al Shafei Mosque - Basateen Rd,agreeing.timing.incurring,,30.012344,31.262177
Imam Mohamed St - Anwar Al Sadat St,coupler.blows.growl,,29.820017,31.376402
Imam Mohamed St - Anwar Al Sadat St,officers.outlawing.crab,,29.820087,31.376524
Imbaba,lifeboats.thick.agents,,30.07665,31.213968
Imbaba,ponies.unloading.traffic,,30.07833,31.217731
Imbaba,ranks.jolly.replenish,,30.076674,31.214165
Imbaba Bus Station,laugh.dabble.colder,,30.078262,31.21852
Imbaba Bus Station,prove.organist.groups,,30.078259,31.217115
Imbaba Bus Station,spreading.doubts.raves,,30.078299,31.218414
Imbaba Bus Station (East),committee.safari.healers,,30.077566,31.221828
Imbaba Bus Station (East),tenure.trappings.dots,,30.07766,31.22175
Imbaba Bus Station (North),pleasing.perplexed.worms,,30.081482,31.216576
Imbaba Bus Station (North),poets.octagonal.choppy,,30.081392,31.216545
Imbaba Bus Station (West),already.drum.grove,,30.07957,31.214594
Imbaba Bus Station (West),pythons.flipper.premiums,,30.079754,31.214539
Imbaba Fevers Hospital,bloom.tugging.starts,,30.083801,31.226295
Imbaba Fevers Hospital,flush.cheese.sagging,,30.083834,31.225988
Imbaba Police Station,store.remembers.trifle,,30.074944,31.222086
Industrial Technical Institute - Azhar,cars.void.unwraps,,30.056147,31.271927
International Garden,outlawing.premature.plump,,30.05171,31.338722
International Garden,robot.agency.panther,,30.051737,31.33893
Isaaf,chosen.squeezed.shock,,30.054693,31.238459
Isaaf,postings.square.recall,,30.054426,31.236492
Isaaf,squashes.infects.pixel,,30.053823,31.237951
Isbiko Bus Station,damp.tailwind.ripe,,30.181044,31.412497
Isko,president.promising.cowboys,,30.15113,31.277302
Islamic Studies Institute - Waili,absorbs.consults.user,,30.0563,31.279253
Islamic Studies Institute - Waili,economics.stir.gamer,,30.056223,31.279192
Ismailiya Desert Road - Belbeis Desert Road,flaked.scare.poetry,,30.150496,31.429932
Ismailiya Desert Road - Belbeis Desert Road,reference.toddler.feuds,,30.150192,31.429571
Jazirat Mohamed,positive.commented.fools,,30.112404,31.204418
Judges Club - Dokki,crossword.flattered.wharfs,,30.04289,31.219189
Judges Club - Dokki,secondly.physical.computers,,30.042915,31.219309
Juhayna Square,kinder.helpfully.curvy,Juhayna Square '9pm',30.008562,30.98152
KFC - Al Lebeny,save.trifling.wished,,29.987125,31.149534
KFC - Al Lebeny,sung.sensitive.shock,,29.987192,31.149612
KFC - Al Manial,screening.plots.nosedive,,30.028227,31.226633
KFC - Gameat Al Dowal St,display.closet.meatballs,,30.055166,31.203672
KFC - Gameat Al Dowal St,replaying.baths.token,,30.055372,31.203403
KFC - King Faisal St,bespoke.carry.loom,,30.002823,31.171217
KFC - King Faisal St,crunches.hostels.robots,,30.002678,31.171305
Kafr AL Shurafa,hires.farmland.soft,,30.143358,31.358383
Kafr AL Shurafa,salmon.fetching.magma,,30.143417,31.358494
Kafr Al Gabal Bus Station,fiction.recruiter.beam,,29.959738,31.145939
Kafr Hamza Mill,tasteful.nowadays.narrating,,30.220135,31.32774
Kafr Hamza Mosque,unzipped.gifts.tropic,,30.230738,31.332205
Kafr Tohormos Steps - Ring Road,hill.cackling.mocking,Kafr Tohormos steps 'Northbound',30.01822,31.166508
Kafr Tohormos Steps - Ring Road,stuffing.flocking.then,Kafr Tohormos steps 'Southbound',30.018257,31.166325
Kafr Tuhurmis,interview.resort.postings,,30.016424,31.174715
Kafr Tuhurmis,sidelined.pipeline.monorail,,30.016388,31.174578
Kahraba Club - Rod Al Farag,appealing.indicate.fillers,,30.084936,31.232613
Kahraba Club - Rod Al Farag,swimsuits.best.dormant,,30.08505,31.232473
Kempinski Hotel - Ring Road,bitters.shelving.plugged,,30.060923,31.417397
Kempinski Hotel - Ring Road,seasons.mini.derailed,,30.061008,31.41722
Kempinski Nile Hotel,loaning.hooks.certainly,,30.037794,31.229729
Kerdasa,magnitude.obstinate.darker,,30.0362,31.116488
Kerdasa Saft El Laban Rd- Mazoun Rd,universally.headliner.ladder,,30.032202,31.135979
Kerdasa Saft El Laban Rd- Mazoun Rd,yawned.swelling.gobblers,,30.032131,31.13604
Khair Zaman - Autostrad Zahraa Al Maadi,misfits.groomed.calculate,,29.961248,31.289583
Khalil Agha Military School,decimals.chairing.shackles,,30.059015,31.262371
Khalil Agha Military School,swan.motivates.nudge,,30.059074,31.262318
Khedr Al Touny - Al Tayaran,freedom.bottom.poorly,,30.075596,31.322016
Khedr Al Touny - Al Tayaran,lion.dress.plums,,30.075857,31.322136
Khedr Al Touny - Al Tayaran,skims.moderated.rummage,,30.07555,31.322445
Kheir Zaman - Ahmed Al Zomor,itself.suspended.wage,,30.047047,31.359509
Khofo Gate - Hadayek Al Ahram,belts.refutes.occupiers,,29.977423,31.112318
Khosous (Ring Road Exit),riskiest.montage.standard,,30.158407,31.301918
Khosous (Ring Road Exit),shins.princely.bandstand,,30.158318,31.302074
Kia Motors - Joseph Tito Street,purified.flag.overlook,,30.136324,31.392082
Kids Land - Mostafa Al Nahas,boils.varieties.bags,,30.057266,31.369188
Kids Land - Mostafa Al Nahas,title.notifying.unrealistic,,30.057037,31.369213
Kilo 4.5 Bus Station,escape.amber.jetliner,,30.078749,31.381498
Kilo 4.5 Bus Station,prove.tribal.impresses,,30.079618,31.381516
Kilo 4.5 Bus Station,warm.cabbies.congratulations,,30.079372,31.381193
Kilo 4.5 Bus Station,weary.guessing.lungs,,30.079681,31.381142
King Faisal St,rules.smiled.escape,,29.99018,31.13518
King Faisal St Bus Station,books.gangs.fiery,,29.99048,31.135342
Kit Kat District,large.garages.inspected,,30.071037,31.21763
Kit Kat District,taxpayers.lived.repair,,30.071089,31.217554
Kit Kat Square,empire.drilled.unloads,,30.065704,31.213562
Kit Kat Square,mirroring.alleges.intention,,30.065157,31.213634
Kit Kat Square,pits.smooth.crinkled,,30.066555,31.213938
Kobry Orabi,scarcely.drape.astounded,,30.12201,31.250238
Kobry Orabi,threaded.fence.blurts,,30.122084,31.250387
Koleyet Al Banat - Azhar University,chairing.hero.sentences,,30.056826,31.326448
Koleyet Al Banat - Azhar University,gangway.envoy.once,,30.052738,31.324799
Koleyet Al Banat - Azhar University,response.amends.somewhere,,30.053013,31.325016
Koleyet Al Banat - Azhar University,witty.typist.class,,30.056837,31.326649
Koleyet Al Banat Metro Station,behaving.efficient.slide,Koleyet Al Banat Metro Station 'southbound',30.08393,31.32863
Korba District,bells.typically.durations,,30.093632,31.324766
Korba District,deodorant.debt.chess,,30.09241,31.323362
Korba District,straddled.ignoring.chipper,,30.092583,31.323229
Koshary Abu Hanafy - Moqattam,commended.dating.cackling,,29.99965,31.331047
Koshary Abu Hanafy - Moqattam,tougher.comedy.best,,29.999624,31.330963
Koshary Al Tahrir - Nasr St,dozed.attaching.clinic,,29.975891,31.284729
Koshary Al Tahrir - Nasr St,raves.ranted.demotion,,29.976028,31.284718
Koshary Aladin - Shobra,vocally.treatable.ogre,,30.070969,31.247192
Koshary Hend - Masaken Al Wehda,organ.meanders.skyrocket,,30.128618,31.260704
Koshary Hend - Masaken Al Wehda,worksheet.inhabited.mammal,,30.12872,31.260933
Language Institute - Qobba,exotic.campers.slimming,,30.081501,31.299568
Language Institute - Qobba,questions.breached.tones,,30.081593,31.299667
Leather and Tanning Company - Autostrad,euphoric.costumed.exporters,,30.00009,31.27656
Leather and Tanning Company - Autostrad,regaining.dried.parent,,30.000038,31.276407
Lebanon Square (Medan Lebnan),melons.kilt.without,,30.059843,31.192621
Lebanon Square Bus Station,defenders.forever.little,,30.059175,31.189756
Libya St - Om Bayoumi,handyman.crib.matchbox,,30.134573,31.251005
Libya St - Om Bayoumi,hopefully.civil.overdrive,,30.134546,31.250698
Licensing Complex - Shubra,leathers.later.cheerily,,30.108032,31.257969
Licensing Complex - Shubra,soggy.trucked.tomb,,30.107973,31.25775
Lotfy Al Sayed St - Masr Wal Sudan St,muddy.reclined.toasters,,30.07459,31.272902
Lux School - Marg,ranked.innovator.spotted,,30.158333,31.328917
MCS Oil - Zahraa Al Maadi,anode.warbler.basically,,29.964432,31.3197
MCS Oil - Zahraa Al Maadi,caressed.skis.stop,,29.964256,31.319916
MIU - Obour,crumble.hologram.fuzz,MIU Obour Westbound,30.166313,31.491087
MIU - Obour,slumped.flinches.regard,MIU Obour Eastbound,30.166183,31.492315
Maadi Corniche Exit - Ring Road,fluid.long.hothouse,Maadi Corniche Exit 'Westbound',29.98974,31.227571
Maadi Corniche Exit - Ring Road,reveal.searcher.deal,Maadi Corniche Exit 'Eastbound',29.989618,31.22778
Maadi Metro Bus Station,clipboard.stag.pylons,,29.96018,31.257246
Maadi Metro Bus Station,pipeline.masses.risking,,29.961842,31.258198
Maadi Military Hospital,employers.regard.direction,,29.968164,31.239489
Maadi Military Hospital,lazy.outnumber.funded,,29.967838,31.239618
Maahad - 5th Settlement,froth.lame.rezoning,,29.993313,31.434494
Maahad - 5th Settlement,kinks.argue.unions,,29.993462,31.434761
Maasara - Autostrad,brain.swung.culling,,29.91316,31.298084
Maasara - Autostrad,defeat.affirming.curving,,29.913094,31.297924
Madbah - Magra Al Oyoun,formless.tailing.reliving,,30.020966,31.240217
Madbah - Magra Al Oyoun,shiny.radiating.annotated,,30.020893,31.240175
Madbah Steps - Ring Road,lushly.retire.dads,,30.149805,31.247515
Madbah Steps - Ring Road,promises.positives.belt,,30.149672,31.24295
Madinat Al Bo'oth Al Eslamyya,barrel.listed.interval,,30.052254,31.276974
Madinat Al Bo'oth Al Eslamyya,enveloped.mega.tunnel,,30.052202,31.277067
Madinat Al Talaba,appointed.september.respond,,30.06988,31.20258
Madinaty Exit - Cairo Fayed Desert Road,ranking.torso.retraced,,30.174118,31.554863
Mafareq - Hadayeq Helwan,butternut.surveyors.otter,,29.893034,31.301353
Mafariq - Megawra 1 15th of May,desks.mango.influencing,,29.854294,31.370296
Mafariq - Megawra 1 15th of May,gateway.mobile.financial,,29.854214,31.370213
Magd Al Islam Hospital,texted.motivates.eyebrows,Magd El Islam Hospital 'Westbound',30.103827,31.254578
Magda Square,clumped.turned.cabbies,Magda Square '3pm',29.975174,30.942778
Magra Al Oyoun - Salah Salem,radar.icicles.parsnips,Magra Al Euon Eastbound',30.018368,31.251667
Magra Al Oyoun - Salah Salem,rope.pegged.fulfilled,Magra Al Euon Westbound',30.018,31.251762
Mahmoudeya Housing - Moqattam,boasted.afterglow.reunion,,30.005571,31.336842
Makram Ebeid - Mostafa Al Nahas,enthused.grab.months,,30.055126,31.346281
Mall of Arabia,ringside.intent.petal,Mall of Arabia 'Northbound',30.002762,30.972473
Mamaleek,airfields.spurring.reverted,,30.009726,31.226
Manial Sheeha Elementary School,nail.trombone.trackers,,29.950745,31.243542
Manial Sheeha Elementary School,rang.tailors.throwaway,,29.9507,31.243439
Manial Sheeha Post Office,pack.shameless.liability,,29.959942,31.232166
Manial Sheeha Post Office,shrugging.flags.pure,,29.95997,31.232262
Manshiyat Al Bakri Steps - Ring Road,extensive.tennis.terribly,Monshaat Al Bakkari steps 'Eastbound',30.011053,31.145727
Manshiyat Al Bakri Steps - Ring Road,unrealistic.banquets.planting,Monshaat Al Bakkari steps 'Westbound',30.011206,31.14571
Manshiyat Al Bakry General Hospital,buck.refers.hockey,,30.093624,31.304672
Manshiyat Al Bakry General Hospital,eruptions.smiling.haggle,Mansheyet El Bakry General Hospital 'Eastbound',30.09242,31.30703
Manshiyat Al Bakry General Hospital,leaps.mandates.grapevine,,30.09259,31.307098
Manshiyat Al Gamal,gross.smoke.aboard,,30.094223,31.272373
Manshiyat Nasser Bus Station,flows.scare.appointed,,30.038277,31.271656
Manshiyat Nasser Bus Station,recent.poetry.ripen,,30.038061,31.27194
Manshiyat Nasser Bus Station - Mid,depth.youngest.opposites,,30.041414,31.275078
Manshiyat Nasser Bus Station - Mid,stir.riverbank.cropping,,30.041296,31.275137
Manshiyat Nasser Bus Station - North,bookcases.tastier.task,,30.044466,31.278223
Manshiyat Nasser Bus Station - North,wells.streaking.galloped,,30.044363,31.27835
Marioteyya Ring Road,noticing.vampire.moderated,,30.008919,31.135946
Marioteyya Ring Road Bus Station,crop.sharpened.household,,30.010323,31.141169
Marioteyya Ring Road Bus Station,hunk.poet.surging,,30.010101,31.141216
Maryam Pharmacy - King Faisal St,cluttered.drilling.spellings,,30.009275,31.188295
Maryam Pharmacy - King Faisal St,presume.motive.keyboard,,30.009396,31.188187
Masaken Ain Shams,ended.snow.witty,,30.13623,31.351461
Masaken Ain Shams,relay.officials.questions,,30.136316,31.351505
Masaken Ain Shams,sketching.puzzles.producers,,30.13568,31.349922
Masaken Al Kendy,bonfires.arming.dunes,,29.991884,31.293003
Masaken Al Kendy,plays.alleyway.storeroom,,29.992037,31.293049
Masaken Al Kendy,thudding.pumpkin.issuer,,29.99173,31.29293
Masaken Al Kendy,valuables.grumble.spoils,,29.99159,31.292868
Masaken Al Shrouq,lodge.vandalism.tape,,30.070164,31.368526
Masaken Al Wehda Bus Station,trappings.rummage.glimmers,,30.119507,31.258417
Masaken Almaza,crops.convey.nearly,,30.090158,31.348623
Masaken Betcho Bus Station,cheer.pebble.scorching,,29.969332,31.329721
Masaken Helmeyet Al Zatoun Station,grandson.hacking.forklift,,30.117743,31.327982
Masaken Sheraton Bus Station,stray.unusually.providing,,30.10544,31.38543
Masaken Zainhom,stages.lollipop.fronted,,30.022772,31.24463
Masarra Bus Station,hems.curtains.honeybees,,30.073614,31.240396
Mashaal Smart Village (Al Qarya Al Zakeya),activates.liked.betrayal,,29.991892,31.129898
Mashaal Smart Village (Al Qarya Al Zakeya),glorified.projects.loses,,29.992138,31.13027
Mashyakhet Al Azhar Al Sharif,infringe.market.daring,,30.045752,31.27117
Mashyakhet Al Azhar Al Sharif,souk.mocked.should,,30.045607,31.271275
Mashyakhet Al Azhar Al Sharif,train.refutes.fractions,,30.045563,31.271353
Maspero Exit - 15th of May Bridge,alike.strutted.tamed,,30.05515,31.229155
Masraweya,coverage.generally.magnitude,,30.025578,31.475554
Masraweya,strictest.glimmers.combines,,30.025293,31.475529
Massalah Gadeeda (Matareya),overdone.animates.earpiece,,30.12777,31.30097
Mastoura Mosque - Moqattam,hypocrite.montage.mentioned,,30.008434,31.315588
Mastoura Mosque - Moqattam,portable.shadow.lotteries,,30.008352,31.31579
Matareya Educational Hospital,evaporate.mull.hotspot,Matareya Educational Hospital Northbound,30.118284,31.30419
Matareya Educational Hospital,organist.hunk.tells,Matareya Educational Hospital Southbound,30.118233,31.304102
Matareya Square,depending.informer.headed,,30.115091,31.306215
Matareya Square,united.buckets.troll,,30.115616,31.306639
Matareyya City Authority,unhappily.wiser.breakfast,,30.113844,31.29765
Mazallat,completed.obviously.picnic,,30.105316,31.24671
Mazallat,however.firepower.sprinkle,,30.104933,31.246443
Mazallat,instilled.agreement.hips,,30.10495,31.246717
Mazallat,pins.farmland.abstracts,,30.104956,31.246601
Mazghuna,overcomes.stylists.courage,,29.744741,31.261349
Mazghuna,washing.arranges.captive,,29.74475,31.261225
Mazlaqan Ain Shams,binder.hairstyle.senior,,30.132488,31.3231
Mazlaqan Ain Shams,holiday.valley.haystack,,30.13255,31.323275
Mazlaqan Ain Shams,styled.operating.areas,,30.133928,31.32383
Mazlaqan Al Deweqa,smaller.informal.fussy,,30.049547,31.286484
Mazlaqan Al Deweqa,weeded.airbag.extremely,,30.04978,31.286537
Mechanical Kharaata Workshop,coconut.earphones.fluffed,,30.130396,31.310469
Megawra 1 Bus Station - 15th of MAy,flank.aunts.something,,29.84644,31.373213
Megawra 11 Bus Station - 15th of May,tracking.bedspread.golden,,29.818378,31.363401
Megawra 3 Bus Station - 15th of May,buck.estuaries.parkway,,29.8326,31.379328
Megawra 3 Bus Station - 15th of May,scanner.blocking.additives,,29.832556,31.379131
Meriam's Tree - Matareyya,rates.whizzing.joins,,30.12029,31.307356
Metro Hadayek Al Qobba Station,thrashed.acrobats.monitors,,30.086689,31.292435
Metro Hadayeq Al Qobba Station,roosters.dollars.plump,,30.086517,31.292412
Mffco Helwan - Helwan Courniche,sisters.poses.incurring,,29.833878,31.299063
Mffco Helwan - Helwan Courniche,squeaks.grudge.approvals,,29.833868,31.298967
Military Academy Stadium - Sheraton,beads.doped.dollar,,30.112677,31.368248
Military Academy Stadium - Sheraton,scorecard.deploying.prowl,,30.111969,31.369276
Military Cemetery - N/A Axis,shows.coolest.triangles,,30.022703,31.352621
Minerals & Refrigeration Center - Abboud,newlywed.cowboy.tiles,,30.107801,31.260393
Ministry Of Higher Education,incensed.slimming.prices,,30.038054,31.340937
Ministry Of Youth And Sports,quality.succeed.appoints,,30.060923,31.205006
Ministry Of Youth And Sports,quick.pushes.nourished,,30.06081,31.205017
Ministry of Agriculture - Dokki,mystery.electrode.modem,,30.04341,31.211712
Ministry of Agriculture - Dokki,reheat.acid.companies,,30.043566,31.211887
Ministry of Irrigation - Warraq,ending.pizzas.mallets,,30.09151,31.225206
Ministry of Irrigation - Warraq,swan.recall.overhear,,30.091454,31.225082
Misr Al Gadeeda Military Hospital,currently.among.singles,Misr Al Gadida Military Hospital Southbound,30.113407,31.332708
Misr Al Gadeeda Military Hospital,organs.dissolve.fuzz,,30.113302,31.332962
Misr Al Qadimah,goodnight.trouble.footpath,,30.000526,31.227863
Misr Al Qadmina Post Office,decoded.entrust.airports,,30.00559,31.226345
Misr Al Qadmina Post Office,tender.documents.piglets,,30.005592,31.226488
Misr Al Wosta Electricity Company - Al Bahr Al Aazam,cupcake.shrub.showrooms,,29.994123,31.215244
Misr Al Wosta Electricity Company - Al Bahr Al Aazam,flows.taxpayers.hopes,Misr Al Wosta Electricity Company 'Northbound',29.994125,31.215385
Misr Bank - Shobra St,believer.agreement.nibbles,,30.06909,31.245089
Misr El Qadima District Presidency,peachy.obviously.basic,,30.015621,31.238953
Misr El Qadima District Presidency,stops.clinic.football,,30.0157,31.23896
Misr El Qadima Police Department,afflicted.tune.ticket,,30.007051,31.253674
Misr El Qadima Police Department,reserved.deciding.everybody,,30.007141,31.253567
Misr Gas Station - Giza Square,unpacked.loud.taster,,30.014462,31.208406
Misr Insurance - Moqattam,exist.prune.square,,30.012974,31.293818
Misr Insurance - Moqattam,order.inspected.crows,,30.013103,31.29379
Misr Petroleum Gas Station - Badrasheen,copiers.enhances.stowing,,29.850142,31.26311
Misr Petroleum Gas Station - Portsaid St,passports.enjoyable.exporters,,30.083559,31.271982
Misr Petroleum Gas Station - Portsaid St,scuba.thrillers.toggle,,30.083525,31.272093
Misr Public Library - Port Said St,beefed.consoled.wins,,30.087687,31.273754
Misr Public Library - Port Said St,gifted.smothered.party,,30.087793,31.273918
Misr Sudan - 7th District - Nasr City,hobby.retraced.alleyway,,30.049006,31.327852
Misr Sudan - 7th District - Nasr City,storyline.encoder.golf,,30.049044,31.328053
Misr University,earphones.splits.request,Misr University 'Northbound',29.997766,30.964796
Mit Halfa - Cairo Alexandria Agriculture Road,cable.extra.collides,,30.162764,31.227833
Mit Nama Steps - Cairo Alexandria Agriculture Road,subtitle.smoke.agreed,,30.142992,31.231098
Mit Nama Steps - Cairo Alexandria Agriculture Road,swimsuits.sitting.surreal,Mit Nama steps 'Southbound',30.142952,31.230963
Mit Okba - Wadi Al Nile,cable.fells.creatures,,30.06058,31.20131
Mit Okba - Wadi Al Nile,overruns.confusion.duplicate,,30.060497,31.201294
Moasasset Al Zakah,bleaching.fatter.tapes,,30.16659,31.383238
Moassasa Pedestrian Bridge,escape.district.spouting,,30.136463,31.233135
Moassasa Pedestrian Bridge,jetting.technical.primed,,30.136417,31.233028
Mobil - Maasara - Nile Courniche,crafts.masks.frostbite,,29.90768,31.287535
Mobil - Maasara - Nile Courniche,upward.files.requiring,,29.90765,31.287441
Mobil - Mall of Arabia,arise.bleak.dash,Mobil Gas Station 'Northbound',30.004608,30.975332
Mobil Gas Station - Abdel Hameed Badawy St,jets.finalists.sharpen,,30.104641,31.378326
Mobil Gas Station - Abdel Hameed Badawy St,ringers.rust.converged,,30.104515,31.378174
Mobil Gas Station - Ahmed Esmat St,bride.carpentry.prices,,30.125023,31.334133
Mobil Gas Station - Al Khalafawy,image.hospitals.gossiped,,30.093826,31.236416
Mobil Gas Station - Al Khalafawy,valid.erupt.parks,,30.09381,31.23627
Mobil Gas Station - Salah Salem St - Helwan,trains.diverged.restrict,,29.921242,31.265068
Mobil Gas Station - Salah Salem St - Helwan,youthful.pheasants.quietly,,29.921207,31.26494
Mobil Hassan Al Sherif - Nasr City,forced.tallest.fetching,,30.051691,31.356878
Mobil Hassan Al Sherif - Nasr City,ribcage.skate.flown,,30.05168,31.357107
Mobil Mostafa Kamel Axis - 1st Settlement,dust.fluffed.blues,Mobil - Mostafa Kamel Axis Southbound,30.058998,31.443356
Mobil Mostafa Kamel Axis - 1st Settlement,parsnip.lighter.stubborn,Mobil - Mostafa Kamel Axis Northbound,30.058968,31.44366
Modern Academy -  Pharmacy College,internal.commands.defected,,29.99502,31.3183
Modern Academy -  Pharmacy College,likely.force.mystified,,29.995129,31.318352
Modern Academy - Dental,itself.bullion.friend,,29.997198,31.317747
Modern Academy - Dental,marine.reminds.cashiers,,29.99718,31.31764
Modern Academy - Physical Therapy,hinders.wound.petrified,,29.992441,31.31131
Modern School - Ahmed Esmat St,aviators.loosens.human,,30.126257,31.330357
Moemen - Nasr St,scorching.someone.shameless,,29.975727,31.281904
Moemen - Nasr St,tasty.gong.discussed,,29.975554,31.28192
Mohagreen (Ezbet Al Nakhl),dorms.saves.filer,,30.14138,31.337551
Mohagreen (Ezbet Al Nakhl),pegged.partly.shudders,,30.1416,31.337622
Mohamed Khattab Pharmacy - Kerdasa,readily.dreams.spectacle,,30.02989,31.10432
Mohamed Khattab Pharmacy - Kerdasa,sway.stance.commands,,30.02995,31.104385
Mohamed Naguib Metro Station,seemingly.glorified.simmer,,30.045267,31.244555
Mohamed Naguib St - Al Salam,alienated.ranges.surging,,30.170652,31.41781
Mohamedan Light Hospital - Ain Shams,complies.closets.poem,,30.126768,31.307093
Mohamedan Light Hospital - Ain Shams,friction.guises.conspired,,30.126802,31.308048
Mohammedan Light - Imbaba,chains.recruiter.beefed,,30.091457,31.213095
Mohie Al Deen Aboul Ezz St - Tahrir St,rounds.tractor.basically,,30.036133,31.20174
Mohie Al Deen Aboul Ezz St - Tahrir St,scanning.spike.tolerates,,30.036022,31.201664
Mokattam Entrance - Al Gamea Al Haditha St,challenge.realm.absorbs,,29.991447,31.318209
Mokattam Entrance - Al Gamea Al Haditha St,still.boomed.swimsuits,,29.991526,31.31776
Moneeb,clearly.clicker.lunge,,29.980621,31.213013
Moneeb,demotion.risen.friday,,29.982689,31.212095
Moneeb,dote.hindering.pampered,,29.986523,31.209698
Moneeb,fear.marginal.cyber,,29.980995,31.210665
Moneeb,lateral.buggy.astounded,,29.98266,31.21223
Moneeb,liberated.heats.petal,,29.983364,31.21092
Moneeb,names.presides.marked,,29.987915,31.21475
Moneeb,pleaser.noise.idea,,29.988012,31.214615
Moneeb,sneezing.trucked.paths,,29.98515,31.213678
Moneeb,soda.awoke.opponent,,29.981388,31.210999
Moneeb Konayyesa,always.autumn.jiggle,,29.985321,31.197414
Moneeb Konayyesa,growth.product.feuds,,29.985678,31.197598
Moneeb Konayyesa,stretch.irritate.hides,,29.985495,31.197496
Montasser - Nile Courniche,gravitate.mulls.thinker,,29.892239,31.288769
Montasser - Nile Courniche,soccer.processor.witless,,29.892223,31.288654
Moqattam Entrance - Salah Salem,hotspots.squeaking.seated,,30.029894,31.26644
Moqattam Entrance - Salah Salem,pitch.united.deriving,,30.029848,31.26656
Moqattam Entrance - Salah Salem,subjects.forkful.duet,,30.030361,31.266874
Mosheer Ahmed Ismail Station - Sheraton,wheat.overtime.offhand,,30.092989,31.372234
Mostorad Pedestrian Bridge,protects.idealist.supporter,,30.131987,31.283829
Mostorod Bridge - Ring Road,dimension.submerged.targeted,,30.163368,31.304024
Mostorod Bridge - Ring Road,noticing.image.brimmed,,30.163208,31.303968
Mostorod Bus Station,glossed.pill.amid,,30.12995,31.291689
Mostorod Bus Station,gong.lamps.eventful,,30.129875,31.291662
Mostorod Bus Station,heaven.adjuster.uncle,,30.130009,31.291748
Mostorod Bus Station,nozzle.gobbling.heave,,30.129797,31.291643
Mostorod Ring Road,magma.aviators.rebounder,,30.164059,31.303236
Mostorod Ring Road,travel.attitudes.seriously,,30.164034,31.303305
Mostorod Station,slider.copiers.existence,,30.131304,31.289217
Motseian,accordion.star.incurring,,30.016796,31.204723
Mountain View Square,emulated.having.reckoned,,30.01647,31.445032
Mountain View Square,restless.leans.baguette,,30.015816,31.445177
Mubarak Educational City Entrance,fussy.cheater.live,,30.010162,30.99353
N/A Axis,motored.mothering.escaping,,30.02461,31.358881
N/A Axis,ruffling.kilts.fairy,,30.024332,31.358952
Nadi Al Baraka Steps - Ring Road,chap.rescuer.being,,30.165903,31.383354
Nadi Al Baraka Steps - Ring Road,firewall.vertical.crowbar,,30.165789,31.383028
Nafoora Square - Moqattam,buildings.puzzled.revised,,30.015629,31.281168
Nafoora Square - Moqattam,domain.stormed.spaces,,30.01571,31.280874
Nahda City Terminal,trail.smirking.firming,,30.170757,31.439262
Nahda City Terminal,womanly.eyepieces.farmland,,30.17079,31.439524
Nahia,camp.hires.slang,,30.045496,31.129242
Nahia,rigid.bolsters.bugs,,30.046669,31.130692
Nahya Steps - Ring Road,beyond.jets.alleyway,,30.044216,31.174948
Nahya Steps - Ring Road,earliest.bloodshot.tripled,,30.044273,31.17522
Nasr Al Islam Mosque - Al Nozha Street,carbonate.lavender.taped,Nasr El Islam Mosque 'Northbound',30.09063,31.341763
Nasr City Police Station 2,dreamers.shrubbery.villas,,30.050732,31.311895
Nasr City Police Station 2,states.sitting.topics,,30.050491,31.312107
Nasr City Sporting Club,passwords.reverted.lunge,,30.058594,31.311079
Nasr City Sporting Club,publish.signal.plod,,30.058628,31.310707
Nasr City Towers,outright.daunted.coats,Nasr City towers 'Southbound',30.03162,31.354424
Nasr Rd - Autostrad Tunnel,mildest.sensibly.pilots,,29.97856,31.289944
Nasr St Exit - Autostrad,club.increment.simple,,29.979927,31.289436
Nasser Bank - Moqattam,beeline.reflected.escaping,,30.018106,31.281368
Nasser Bank - Moqattam,husky.albums.sheet,,30.018063,31.281324
Nasser Institue For Research - Al Khalafawy,erupt.mend.slacker,,30.096975,31.238222
Nasser Institue For Research - Al Khalafawy,hotspot.overused.snacks,Nasser Institue for Research Southbound,30.097075,31.238113
National Authority For Military Production,noon.mavericks.gossip,,30.108791,31.26082
National Cardiac Institute - Alamen St,decreased.plankton.incomes,,30.06694,31.21059
National Institute for Diabetes - Magra Al Oyoun,career.strapping.megawatt,,30.025934,31.23191
National Institute for Diabetes - Magra Al Oyoun,condensed.chatters.quarrel,,30.025974,31.230856
National Institute for Occupational Safety and Health (Al Amn Al Senaey),sheds.proofread.agenda,,30.11318,31.348698
National Institute for Occupational Safety and Health (Al Amn Al Senaey),unfocused.screaming.singers,,30.113157,31.348167
National Institute for Tumor Studies - Magra Al Oyoun,frowns.lyricism.dose,,30.02206,31.2309
National Institute for Tumor Studies - Magra Al Oyoun,strapped.moth.committee,,30.022137,31.230976
National Research Center - Dokki,cookbooks.moral.property,,30.036825,31.204762
National Research Center - Dokki,truck.chugging.wiped,,30.036703,31.204784
Nazlet Al Ashtar Post Office,wicket.smarting.sprinkle,,29.951668,31.199818
Nefertari International School,emerge.heartburn.teachers,Nefertari International School 'Eastbound',30.154018,31.443474
Nefertari International School,tapers.sinkhole.riddle,Nefertari International School 'Westbound',30.154213,31.44341
Neiazi Sayed - Mansoureyya Rd,masterful.toys.nozzles,,30.003693,31.11961
Neiazi Sayed - Mansoureyya Rd,organist.transcribes.mornings,,30.00372,31.119665
New Heliopolis City Authority,reaction.headpieces.user,,30.137775,31.679846
New Heliopolis City Authority,stationing.pavers.narrows,,30.13771,31.680084
New Heliopolis Entrance,agreement.straw.hobbies,,30.110437,31.691042
New Heliopolis Entrance,circular.amending.soup,,30.110237,31.69128
New Housing Complex - Al Khanka,calendars.quail.joined,,30.230246,31.375162
New Housing Complex - Al Khanka,irony.crucially.rifled,,30.230326,31.37518
New Marg,alpha.somebody.venue,,30.162825,31.337185
New Marg,lectured.conspire.bashed,,30.16353,31.33726
New Marg,longingly.armrests.blast,,30.16232,31.3374
New Marg,mere.costumed.shot,,30.16266,31.337194
New Marg,spilled.dozen.insurance,,30.164433,31.3389
New Marg,styled.corrode.pizzeria,,30.163736,31.338997
New Marg Exit - Ring Road,soonest.willpower.envy,,30.162926,31.334133
New Marg Steps - Ring Road,cage.eruptions.gosh,,30.163607,31.341734
New Marg Steps - Ring Road,dared.tingled.degrading,,30.163393,31.341467
New Market - Asmarat,samples.handlebar.geek,,29.992046,31.340439
New Musuem - Cairo Alex Desert Rd,curls.farmland.doubts,,29.997356,31.119146
New Musuem - Cairo Alex Desert Rd,fronted.upsetting.retrain,,29.997389,31.119345
Nile Club - Shubra Al Kheima,notch.smiling.denim,,30.110659,31.24347
Nile Club - Shubra Al Kheima,november.surpasses.locating,,30.110699,31.243565
Nile Towers - Nile Courniche,anguished.snap.declining,,30.072557,31.22727
Nile Towers - Nile Courniche,desktops.expand.danger,,30.072458,31.227383
Nile Towers - Nile Courniche,uplifting.credited.scoping,,30.072723,31.228285
Nile University,backlog.rationed.snow,Nile University 'Northbound',30.009514,30.98544
Nissan - Kattameya,desk.digests.panels,Nissan New Cairo Service Road,29.993439,31.384228
Nissan - Kattameya,suspends.tiles.ticket,Nissan New Cairo Ring Road,29.993582,31.38412
North Cairo Electricity Co - Al Helmeya,patching.again.sheets,North Cairo Electricity Co - El Helmeya Westbound,30.11129,31.318216
North Cairo Electricity Co - Al Helmeya,zinc.offstage.applauded,North Cairo Electricity Co - El Helmeya Eastbound,30.111158,31.318108
Northen Giza Courthouse,ankle.washing.scooters,,30.06882,31.205635
Noubar Street,publisher.junction.mass,,30.044643,31.241976
Nour Al Huda Automotive - Shubra Al Kheima,showering.layered.stop,,30.107895,31.246504
Nour Al Huda Automotive - Shubra Al Kheima,tentacles.amplifier.saying,,30.107985,31.246365
Nour Al Islam Azhari Institute - Kafr Al Gabal,craftsman.fled.betraying,,29.95943,31.161991
Nour Al Islam Azhari Institute - Kafr Al Gabal,flattered.broached.shirts,,29.959702,31.162035
Nour Al Islam Mosque - Shubra Al Kheima,fixtures.slimming.gushes,,30.115997,31.284431
Nour Al Islam Mosque - Shubra Al Kheima,webcams.panicking.healers,,30.116081,31.284252
Nour Al Islam Mosque Steps - Ring Road,dislodge.tearfully.postcard,El Safa W El Marwa Mosque steps 'Westbound',29.992725,31.24664
Nour City Steps - Ring Road,chatters.fells.outfit,,30.012594,31.155396
Nour City Steps - Ring Road,noble.discusses.electrode,,30.012444,31.155436
Novartis Pharma - Al Zaytoun,owners.remotest.misted,,30.105461,31.291664
Novartis Pharma - Al Zaytoun,workbook.befitting.emulating,,30.105604,31.29171
Nozha Bridge - End,juniors.ounce.rooster,,30.086739,31.341202
Nozha Bridge - Start,vocals.firelight.display,,30.086761,31.340973
Oasis Mall - Sheraton,extremely.racetrack.unscathed,,30.109215,31.372017
Oasis Mall - Sheraton,limits.drifter.wiring,,30.10911,31.371708
Obour City Authority,illogical.partner.agenda,,30.239037,31.458244
Obour City Authority,quintet.scatters.blur,,30.239044,31.458405
Obour Market - East,traded.punters.lemons,,30.166935,31.476816
Obour Market - South,tissue.identity.fenced,,30.161366,31.468367
Obour Market 2 - South,deodorant.riot.arts,,30.163269,31.474207
Obour Market Bus Station,upgrading.cashew.zinc,,30.169048,31.462936
Obour Sporting Club,masses.unloads.partners,,30.234264,31.458332
Obour Sporting Club,rejoiced.ozone.deeper,,30.23521,31.45811
Obour Square,tracking.irritable.manly,,30.16677,31.477573
Obour Tunnel,badminton.guitar.cakewalk,,30.163963,31.479025
Observatory - Helwan,blank.tripling.panting,,29.868448,31.354622
October Bus Station,daredevil.steadily.salutes,,30.051308,31.177576
October Microbus Stop,crumble.leave.dignify,,30.014498,31.210003
Officers Club - Zamalek,unfocused.gets.dignity,,30.061401,31.218784
Officers Club - Zamalek,wake.firelight.misfits,,30.061554,31.218866
Officers Housing - Al Remaya St,hawks.outlooks.earl,,29.98742,31.120087
Officers Housing - Al Remaya St,stepping.backpack.acquaint,,29.98739,31.120008
Oil Libya Gas Station - Sadat Square,advising.lasted.tram,,29.841747,31.375141
Oil Libya Gas Station - Sadat Square,magazines.florists.guards,,29.841871,31.375374
Old 10th of Ramadan Station,breeding.adhesive.chains,,30.148487,31.418085
Old 10th of Ramadan Station,display.segregate.branched,,30.148756,31.41924
Olowwa Faris St - Bab Al Shaereyya,instructs.quieter.anchovies,,30.058397,31.259462
Om Al Masryeen Metro Station,bossy.guessing.rags,,30.00547,31.208727
Om Al Masryeen Metro Station,coping.surface.toys,,30.00551,31.208849
Om Bayoumi,waggled.puns.cult,,30.143345,31.251034
Om Bayoumi Station,belt.interlude.images,,30.148525,31.251385
Om Bayoumi Station,nags.prices.unwind,,30.149178,31.25189
Om Khinan - Al Hawamdiya,films.sling.trudges,,29.912025,31.267132
Om Khinan - Al Hawamdiya,subway.setting.variances,,29.912062,31.267258
Omar Efendi - Ahmed Oraby St,fights.gliders.park,,30.063677,31.205362
Omar Efendi - Ahmed Oraby St,wedding.roofer.reporting,,30.063797,31.204277
Omar Ibn Al Khattab Mosque - Matareya St,fevered.trickles.nets,,30.108007,31.303547
Omar Ibn Al Khattab Mosque - Matareya St,selection.dorm.cricket,,30.107979,31.303406
Ommal Square - 5th Settlement,shuttled.dorms.offer,,29.997194,31.43215
Ommal Square - 5th Settlement,wished.dislodge.merit,,29.996891,31.432018
Opera House - Tahrir,replenish.concerts.much,,30.043211,31.22704
Opera House - Tahrir,slimming.motels.agree,,30.043356,31.226837
Orascom business - Anabeeb Al Petrol,pulled.complies.cheeses,,30.133265,31.376635
Oriental Weavers - Haram,comfort.geek.tidal,,30.01039,31.204151
Oriental Weavers - Haram,paddock.commented.canal,,30.010527,31.204174
Oriental Weavers - Sheraton,struck.completed.chat,,30.107906,31.36574
Oriental Weavers - Sheraton,usage.bloomers.organ,,30.108177,31.36552
Oriental Weavers - Shubra Al Kheima,richer.treatment.vowed,,30.122105,31.250263
Othman Pedestrian Bridge - Ring Road,uppermost.tent.excellent,Othman Bridge 'Westbound',30.16331,31.3127
Othman Steps - Ring Road,disengage.jams.shampoo,Othman 'Eastbound',30.162973,31.309877
Palace of Culture - Matareyya,stylists.monks.raft,,30.11419,31.285294
Palace of Culture - Matareyya,visual.defrost.ridge,,30.114285,31.285109
Palestine School - Ain Shams St,chair.cattle.riverside,,30.130417,31.322088
Palestine School - Ain Shams St,doted.elder.recording,,30.130455,31.322243
Palestine St - Ahmed Oraby St,quote.critic.notices,,30.127151,31.345236
Panasonic - Abbas Al Akkad,squashes.router.grumbling,,30.065065,31.336784
Panasonic - Abbas Al Akkad,timed.stutter.charts,,30.065115,31.337015
Panorama October,nanny.reveal.landed,Panorama October 'Eastbound',30.074213,31.303896
Paradise Al Shorouq Compound,disgraced.difficult.noises,,30.152637,31.659683
Paradise Al Shorouq Compound,swatting.engineers.croak,,30.152662,31.659834
Pasta Factory Steps - Ring Road,chairing.mixed.clips,,29.98471,31.203974
Pasta Factory Steps - Ring Road,graduated.again.untruth,,29.984543,31.204016
Pepsico - Nasr City,bedding.armed.eyepieces,,30.03859,31.346518
Pepsico - Nasr City,something.breezy.evoked,,30.038555,31.346315
Petroleum Square - Marg,growl.squeaking.bright,,30.149548,31.328136
Pizza Hut - Mostafa Al Nahas,intention.stall.stand,,30.05681,31.365112
Pizza Hut - Mostafa Al Nahas,raven.sketching.touchy,,30.056606,31.365126
Plaza Club - Obour,assist.slyly.partly,,30.252203,31.463655
Plaza Club - Obour,spilled.originate.totals,,30.252476,31.463747
Police Academy - Abaseyya,composes.submits.privately,,30.069082,31.285023
Police Academy - East,incensed.spades.loves,,30.049847,31.442148
Police Academy - North,observers.eats.expecting,,30.053429,31.4134
Police Academy - Ring Road,crust.loss.unclaimed,,30.03742,31.404415
Police Academy - Ring Road,fatigued.wounds.latest,,30.03762,31.40368
Police Academy - Ring Road,game.undertone.reverses,,30.037632,31.40387
Police Hospital - Agouza,rucksack.deferring.retailing,,30.0512,31.21698
Police Hospital - Agouza,sourcing.hence.shipwreck,,30.051373,31.217089
Police Hospital - Al Shaheed Axis,forum.lightbulb.cubs,,30.038967,31.327826
Police Hospital - Al Shaheed Axis,ratty.yesterday.cookies,,30.039034,31.32794
Police Hospital - Tayran St,fidget.suspended.lunge,,30.038841,31.3315
Police Hospital - Tayran St,steer.flipper.rehearsed,,30.038773,31.331366
Police Mosque - Salah Salem St,cured.surpasses.mime,,30.051956,31.276718
Police Mosque - Salah Salem St,highways.subsystem.suffer,,30.0519,31.276798
Police Station - 5th Settlement,conducted.masses.capacity,,29.997766,31.426624
Police Union Club,portfolio.betrayed.scorch,,30.055428,31.27624
Port Said Square - Maadi,laminated.whoever.brochure,,29.9613,31.262608
Port Said Street - Al Sawah,returns.prefect.nearing,,30.107567,31.284
Porto Cairo Mall,absorb.milkman.lung,,30.065744,31.42187
Porto Cairo Mall,reception.strictly.liver,,30.065487,31.42214
Postal Office - 1st Settlement,octagonal.cashier.class,,30.067,31.46181
Postal Services Office - Haram St,defends.recording.mankind,,29.98453,31.13561
Postal Services Office - Haram St,kettles.coach.sunblock,,29.98483,31.135843
Public Taxes Mission - Nasr City,cassettes.hoping.tortoises,Public Taxes Mission 'Southbound',30.059431,31.345459
Public Taxes Mission - Nasr City,discloses.cubs.appealed,Public Taxes Mission 'Northbound',30.059456,31.345661
QNB Bank - Haram Street,disband.consumed.haggling,,29.988789,31.146519
QNB Bank - Haram Street,tasters.daytime.surprised,,29.98867,31.146593
Qadry Basha - Al Sayeda Zeinab,puzzle.wedding.bulge,,30.03332,31.245604
Qadry Basha - Al Sayeda Zeinab,scouted.eternally.blown,,30.03323,31.245687
Qalaa Bus Station,whirlpool.goodbyes.direction,,30.029772,31.257717
Qalaa Post Office,mimes.teaspoons.snowboard,,30.03049,31.25628
Qalyoub Al Balad Bus Station,invoices.provider.mammals,,30.181292,31.207653
Qalyoub Al Balad Bus Station,remake.chainsaw.poorly,,30.181356,31.20766
Qalyoub Exit,profiled.strong.sampled,,30.149548,31.231804
Qalyub,copy.durations.single,,30.181232,31.19986
Qalyub District Court,blame.blush.hound,,30.18091,31.216993
Qalyub District Court,roofed.mammoth.elsewhere,,30.180977,31.217005
Qalyub Exit - Cairo Alexandria Agriculture Road,wound.panning.dolly,,30.146801,31.230234
Qalyub Exit - Ring Road,paddocks.highlight.partners,,30.149168,31.228516
Qalyub Exit - Ring Road,vans.overheard.massive,,30.148874,31.225325
Qalyub Specialized Hospital,positives.arranged.guesswork,,30.180817,31.22172
Qalyub Specialized Hospital,riverside.bubbles.notifying,,30.181154,31.2232
Qalyub Steps - Ring Road,hairspray.engine.poodle,,30.1493,31.230368
Qalyub Steps - Ring Road,wiggles.split.exonerate,,30.149168,31.230326
Qasr Al Einy,crusher.exists.defrost,,30.029207,31.229782
Qasr Orabi Furniture - Gamal Abdel Nasser,scatters.itself.officials,,30.141256,31.397951
Qasr Orabi Furniture - Gamal Abdel Nasser,stay.butterfly.mini,,30.14142,31.397877
Qatar Ahli Bank - Tayaran,submitted.exporters.archives,,30.062454,31.32582
Qawmeya Steps - Ring Road,megawatt.nurse.sweeten,,30.096333,31.199623
Qawmeya Steps - Ring Road,tumble.blesses.arranger,,30.09639,31.199451
Qism El Hadayek Bus Station,chains.estimated.flames,,30.094093,31.286324
Qism El Hadayek Bus Station,polka.mammoths.about,,30.093964,31.286217
Qism El Marg,remainder.glossed.wink,,30.14926,31.340948
Qobba Bridge,aliens.muffin.valid,,30.084255,31.295565
Qobba Bridge,otter.punchy.awaited,,30.084438,31.296179
Qolali,rungs.bothered.besotted,,30.060566,31.243015
Rabaah Al Adaweya Mosque,blunders.crafts.normal,,30.067259,31.324728
Rabaah Al Adaweya Mosque,ignore.tinsel.ample,,30.067305,31.32515
Rabaah Al Adaweya Mosque,profiled.rooks.opinion,,30.067457,31.324562
Rabaah Al Adaweya Mosque,sleepless.enhances.etchings,,30.067507,31.325165
Radisson Hotel - Sheraton,gather.middle.songbook,,30.106998,31.375214
Radisson Hotel - Sheraton,torch.limits.looks,,30.107111,31.375408
Radobis Cinema - Haram Street,singer.owes.directive,,30.006748,31.194588
Ragab Sons - Al Magzar Mariouteya,chuck.atomic.valid,,29.977545,31.162785
Ragab Sons - Al Magzar Mariouteya,doing.journals.straddled,,29.977097,31.16226
Ragab Sons - Al Magzar Mariouteya,trouser.ripples.intention,,29.976965,31.162163
Ragab Sons - Al Shabab Street - Obour,painters.doubt.lump,,30.265488,31.477118
Ragab Sons - Gazaer St,access.locate.endearing,,29.975527,31.275873
Ragab Sons - Gazaer St,reshaping.stated.marketing,,29.975555,31.27603
Ragab Sons - Mahdy Arafa,houseboat.sailor.tribune,,30.054977,31.379784
Ragab Sons - Mahdy Arafa,shiver.televise.ignoring,,30.054998,31.379553
Rahma Mosque - Ahmed Zomor,rainwater.decanter.seashell,Rahma Mosque Eastbound,30.053095,31.332739
Rahma Mosque - Ahmed Zomor,worksheet.examples.bolts,Rahma Mosque Westbound,30.053293,31.33272
Ramses,cosmetic.directive.metals,,30.061483,31.246998
Ramses,divided.money.shadowing,,30.06066,31.246267
Ramses,exporters.croaking.cattle,,30.058985,31.244516
Ramses,facing.figs.joystick,,30.06259,31.243174
Ramses,hardens.reader.resettle,,30.061861,31.247044
Ramses,stutter.acids.iteration,,30.061598,31.24614
Ramses,timidly.graph.treble,,30.061617,31.246288
Ramses,workbench.typified.amount,,30.062534,31.243525
Ramses - Al Fath Mosque,airbase.towers.bulletins,,30.061218,31.246954
Ramses Extension - Northside,crumb.milk.delved,,30.063955,31.297567
Ramses Extension - Northside,grapevine.words.supreme,,30.06368,31.298397
Ramses Extension - Southside,cake.factually.fairness,,30.050821,31.307524
Ramses Extension - Southside,dishing.skim.gravitate,,30.05068,31.307346
Ramses Extension - Southside,published.craftsman.script,,30.050438,31.307726
Ramses Language Schools - Khaloussi,crowns.formally.hiked,,30.078287,31.250034
Ramses Language Schools - Khaloussi,pedicure.caged.milky,,30.078348,31.249996
Ramses Railway Station,earlobe.fetching.mulls,,30.06187,31.24814
Ramses Railway Station,pills.compiler.calculating,,30.061956,31.248016
Real Estate Registration Mission - Shubra,sandwich.houseboat.reforming,,30.074175,31.24804
Real Estate Registration Mission - Shubra,spinning.incursion.decoding,,30.07419,31.247946
Red Crescent - Masaken Zainhom,locator.cools.diner,,30.02165,31.245596
Rehab Gate 13,taster.district.flattered,,30.06414,31.475153
Rehab Square,guesswork.shunts.against,,30.05463,31.475485
Remaya Exit - Ring Road,cheetahs.myth.grazes,,30.0001,31.121758
Remaya Exit - Ring Road,pronouns.inspects.spout,,30.000244,31.121588
Reporters Club - Al Bahr Al Aazam,pinks.nuzzling.generally,,30.005512,31.217402
Reporters Club - Al Bahr Al Aazam,survive.dugouts.unframed,,30.005447,31.21754
Research Institute of Ophthalmology - Giza,extremely.wriggled.greed,,30.015724,31.216688
Research Institute of Ophthalmology - Giza,jabs.kilt.gold,,30.015842,31.216574
Rimo Car - Ahmed Helmy St,protects.boat.illogical,,30.078783,31.25575
Ring Road Entrance - Cairo Alexandria Agriculture Road,card.makeovers.inefficient,,30.149086,31.22534
Ring Road Entrance - Cairo Alexandria Agriculture Road,jammy.general.duties,,30.149412,31.233467
Ring Road Entrance - Mansoureyya Road - Kafr Al Gabal,blocks.rave.miracles,,29.9548,31.154284
Ring Road Exit - Mansoureyya Road - Kafr Al Gabal,cleanser.chapels.about,,29.95579,31.154083
Ring Road Steps 1 - 26th of July Mehwar,incurs.aquatics.firm,,30.062,31.175514
Ring Road Steps 2 - 26th of July Mehwar,closed.beam.functions,,30.061895,31.175503
Ring Road Steps 2 - 26th of July Mehwar,outermost.puncture.decide,,30.062584,31.172712
River Transport Authority - Zahraa,clasping.roadways.documents,,29.998129,31.228434
River Transport Authority - Zahraa,signified.pats.diagram,,29.998611,31.228842
Rod Al Farag Metro Station,boost.nesting.worms,,30.080694,31.24522
Rod Al Farag Metro Station,hacksaw.sandbags.swatted,,30.080673,31.24535
Rod Al Farag Youth Center,commuting.songbook.page,,30.075893,31.228775
Rod Al Farag Youth Center,dizziness.reviewed.divides,,30.07534,31.228266
Rotana Motors - Maadi,outermost.dips.hinders,,29.986393,31.278807
Rotana Motors - Maadi,sulky.birthing.atoms,,29.986486,31.27877
Roushdy Pharmacy - Al Remaya,greyhound.parts.taster,,29.991081,31.130705
Roxy,garage.legroom.alongside,,30.093903,31.318336
Roxy,minimums.ember.artist,,30.093601,31.314302
Roxy,obliging.lame.imported,,30.093067,31.315264
Roxy,shunts.leotard.jammy,,30.093355,31.31505
Roxy,successes.stolen.happening,,30.093689,31.314362
Roxy Bus Station,nitrogen.brambles.comedians,,30.094984,31.316248
Roxy Bus Station,rebounder.ridiculed.anode,,30.09464,31.316118
Royal City Gate - Sheikh Zayed,clicker.windpipe.frosted,,30.033121,31.02865
Roz Al Youssef Magazine - Garden City,station.dreaming.romantics,,30.035107,31.233776
SM Library - Sherket Al Maadi St,burglars.hypnotist.agents,,29.985985,31.277199
SM Library - Sherket Al Maadi St,hazelnuts.kennels.pilots,,29.986086,31.277168
Saad Zaghloul Metro,averts.trucked.duplicity,,30.036503,31.24037
Saad Zaghloul School - 15th of May,fabric.firmer.science,,29.832794,31.38189
Saad Zaghloul School - 15th of May,mandolin.prep.warthog,,29.8327,31.3823
Saad Zaghloul St - Anwar Al Sadat St,onions.reception.gamer,,29.823698,31.373394
Saad Zaghloul St - Anwar Al Sadat St,piglet.clincher.kickbacks,,29.823755,31.373163
Sadat Academy - Maadi,ascendant.norms.soccer,,29.959782,31.248505
Sadat Academy - Maadi,income.swerving.cleansed,,29.9596,31.248276
Sadat Academy - Maadi,outlooks.describes.year,,29.959694,31.248653
Safeer Square - Heliopolis,cable.edit.forgotten,,30.097979,31.338531
Safeer Square - Heliopolis,starters.doubts.billiard,,30.097534,31.338545
Saft Al Laban,pizzas.sharpness.above,,30.031252,31.168247
Saft Al Laban Entrance North - Ring Road,saving.craftsmen.fights,Saft Labn entrance (north) 'eastbound',30.033884,31.165339
Saft Al Laban Entrance South - Ring Road,fuse.vanished.visa,Saft Labn entrance (south) 'eastbound',30.025583,31.164158
Saft Al Laban Exit South - Ring Road,poppy.paddlers.quack,,30.033684,31.165369
Saft Al Laban Exit South - Ring Road,streaks.outermost.forkful,,30.025545,31.163992
Saft Al Laban Steps - Ring Road,underway.reassured.silks,,30.036602,31.168098
Safwa Clinics - Obour,deeds.premiums.sums,,30.256203,31.467829
Safwa Clinics - Obour,heads.taxi.loafing,,30.256271,31.467705
Saint Fatima Square,sides.adjusted.unleashed,,30.105759,31.343866
Saint Fatima Square,talents.compelled.ripen,,30.105679,31.344116
Saint Teresa Metro Station,minerals.addicted.spouting,,30.089268,31.2454
Saint Teresa Metro Station,similar.symphonic.various,,30.089262,31.2453
Sakiat Mekki Metro Station,recording.boil.contracts,,29.994568,31.209032
Sakiat Mekki Metro Station,stated.qualify.prefix,,29.994572,31.209177
Sakkara Steps - Ring Road,epidemics.game.costs,Sakara steps 'Eestbound',29.97392,31.172482
Sakkara Steps - Ring Road,televise.sprouting.offhand,Sakara steps 'Westbound',29.97401,31.172268
Salah Al Din Citadel - Salah Salem,bluntly.screeches.mime,,30.025267,31.26173
Salah Al Din Citadel - Salah Salem,defenders.migrants.chambers,,30.025385,31.261654
Salah Al Din Square - Heliopolis,bends.sprayer.stereos,,30.095213,31.330282
Salah Al Din Square - Heliopolis,graced.sidelined.eaten,,30.095142,31.330309
Salam Alexandria,compiler.breeze.martini,,30.191721,31.419973
Salam Alexandria Bus Station,inhaled.directive.owned,,30.178577,31.420866
Salam Alexandria Bus Station,kidney.popping.rudder,,30.17852,31.420938
Salam Nahda,harps.diverged.rewarding,,30.155378,31.40934
Salam Nahda,table.inherits.rationing,,30.155474,31.409397
Salama Afifi Street - Al Zawya Al Hamra,kilts.mixing.herring,,30.09554,31.266666
Salama Afifi Street - Al Zawya Al Hamra,receiving.walled.held,,30.095463,31.266647
Saleh Sobhy - 15th of May,forehand.conducted.lists,,29.842047,31.357906
Saleh Sobhy - 15th of May,shuffles.amplified.cabinets,,29.842592,31.358164
Samir & Ali - Al Thawra Street,unhappily.congratulations.nicer,,30.082613,31.342884
Saqqara (Moroor),songbird.pushover.recent,,29.850912,31.24111
Saqqara (Moroor),stole.overtones.bids,,29.85091,31.24164
Saqqara Badrasheen Bus Station,sprouting.snooping.lifetimes,,29.850231,31.23129
Saqr Quraish,blotting.grumbles.rising,,29.986624,31.288809
Saqr Quraish,display.debut.rounds,,29.986483,31.288752
Saqr Quraish,gangs.plausible.valley,,29.986399,31.288485
Saqr Quraish,hatter.elbowing.thrillers,,29.985842,31.285795
Saqr Quraish,howler.comically.force,,29.986092,31.288712
Saqr Quraish,montage.riverbank.muddle,,29.986357,31.288998
Saqr Quraish,runner.remarking.hints,,29.985199,31.286264
Saqr Quraish,shepherdess.pits.tank,,29.985836,31.288576
Saqr Quraish,snowboard.collect.encrusted,,29.98587,31.285892
Saqr Quraish,width.testing.willpower,,29.986034,31.288458
Saray Al Qobba,upholds.parade.pokes,,30.098005,31.307537
Saray Al Qobba,waistcoat.required.formal,,30.09799,31.307371
Sayyed Al Abedeen Pharmacy - Cablat St,answers.scrub.manager,,30.11381,31.29253
Scoial Services School - Roxy,whirlwind.trickle.diplomas,,30.091349,31.309818
Seagull Iron - Bolak,december.scatters.creamed,,30.06748,31.229347
Seagull Iron - Bolak,positions.ankle.union,,30.067562,31.229425
Sednawy - Sudan St,openly.winks.crisis,,30.038057,31.196566
Sednawy - Sudan St,trek.fuels.merge,,30.038036,31.196451
Sekat Hadid Al Mahager - Basateen,different.stacks.spun,,29.984303,31.271845
Sekket Al Waili,entertainer.unspoiled.butter,,30.091593,31.280077
Sekket Al Waili,revision.stowing.subplot,,30.09165,31.279657
Sekket Al Waili Street - Kobry Al Qobba,unloaded.garlic.headset,,30.087593,31.289814
Shabramant Bus Station,magical.hobby.sneezing,,29.939842,31.195314
Shabramant Bus Station,munch.alien.stroke,,29.939383,31.194988
Shahrazad Hall - Sawah,unguarded.book.engraving,,30.111885,31.284094
Shams Club - Alf Maskan,dollars.waking.supporter,,30.121387,31.342785
Shams Club - Alf Maskan,newly.perfumed.nimbly,,30.121525,31.342604
Shams Club Squash Courts,admiringly.fizzled.bagpipes,,30.11749,31.36081
Shams Club Squash Courts,fine.claw.paces,,30.117662,31.360947
Shawerma Abu Mazen - Maadi,downsize.think.soccer,,29.960434,31.250397
Sheikh Al Balad - Ain Shams St,testers.rather.absorbing,,30.123812,31.318815
Sheikh Al Balad - Ain Shams St,unlisted.wound.swept,,30.123829,31.318724
Sheikh Ali Youssef School - Downtown,rivals.ballooned.smile,,30.029987,31.233912
Sheikh Selim Institute - Arbean St,shocking.objective.breakaway,,30.134434,31.31476
Shepheard Hotel,walked.windy.smiles,,30.042263,31.231504
Sheraton Bus Station,mule.daylight.nametag,,30.105803,31.386398
Sherket Al Maadi St - Gazaer St,destroyer.degree.bandstand,,29.985071,31.273645
Sherket Al Maadi St - Gazaer St,frizz.vocally.reprints,,29.985058,31.27377
Shobra - Banha Steps,present.cabinets.arranger,,30.149567,31.254063
Shobra - Banha Steps,underline.purified.splice,,30.149712,31.25426
Shooting Club Pedestrian Tunnel,column.attends.cools,,29.983543,31.325731
Shooting Club Pedestrian Tunnel,irritable.swells.text,,29.98335,31.325705
Shooting Club Pedestrian Tunnel,though.calm.react,,29.983711,31.325745
Shubra Al Khaima City Authority,cleanser.steamed.paddle,,30.11991,31.242662
Shubra Al Kheima,case.pods.rummage,,30.12328,31.245155
Shubra Al Kheima,gymnasium.outreach.quarrel,,30.123129,31.245079
Shubra Al Kheima City Council,celebrate.slick.unit,,30.1201,31.243366
Shubra Al Kheima East District Presidency,revise.gets.vandalism,Shoubra El Khaima East District Presidency 'Westbound',30.13508,31.2728
Shubra Al Kheima Metro Station,outlawing.remover.cricket,,30.121689,31.244516
Shubra Al Kheima Metro Station,workforce.duplicate.masterpiece,,30.121758,31.24463
Shubra Al Kheima Power Plant,lays.fork.jumbo,,30.11448,31.24205
Shubra Al Kheima Power Plant,list.limiting.gossiped,Shoubra El Khiema Power Plant 'Northbound',30.11446,31.24194
Silver Nile Social Club - Maadi Corniche,applied.unsecured.patting,,29.97853,31.233097
Silver Nile Social Club - Maadi Corniche,remembers.verb.defers,,29.97851,31.232973
Silver Star Mall - 5th Settlement,began.compelled.zoom,,30.003302,31.42034
Silver Star Mall - 5th Settlement,strike.hunches.strutting,,30.003605,31.42019
Simsima - Dokki,leads.amplified.senders,,30.033813,31.211926
Simsima - Dokki,over.tripods.observers,,30.03319,31.212158
Sky Mart Mall - 1st Settlement,crunching.shipwreck.jigsaw,,30.067867,31.451164
Soap Factory - Marg,respects.slimmer.shun,,30.171812,31.345152
Sobhy Hussein St - Moqattam,hacksaw.asserts.bulky,,29.998299,31.327147
Sobhy Hussein St - Moqattam,rely.flitting.revival,,29.998503,31.326773
Social Insurance Bureau - El Khanka,steeped.amaze.city,,30.227083,31.363916
Social Insurance Bureau - Shubra Al Kheima,joined.walks.verb,Social Insurance Bureau - Shoubra El Khaima 2 'Northbound',30.136131,31.27064
Sonesta Hotel - Tayaran St,feathers.piglets.full,Sonesta Hotel - Tayaran St 'Southbound',30.078936,31.318775
Sonesta Hotel - Tayaran St,instead.graphic.melts,,30.078842,31.318634
Souq Al Asr - Khalifa Al Mamoun,client.collapsed.baguette,,30.088058,31.309906
Souq Al Asr - Khalifa Al Mamoun,relies.ratio.defectors,,30.08817,31.309748
Souq Bab Al Louk,union.impulsive.wired,,30.04521,31.23972
South Cairo Electricity Distribution Co - Kerdasa,chase.geologist.nearing,,30.034996,31.099918
South Cairo Electricity Distribution Co - Kerdasa,clouds.forgives.lordship,,30.035053,31.099964
Sphinx Square,dimension.skyrocket.fuels,,30.059973,31.208063
Sphinx Square,heartless.strays.curve,,30.062052,31.207659
Sphinx Square,leathers.cope.sweetly,,30.060131,31.207727
Sphinx Square,suffix.estuaries.panicking,,30.06168,31.207418
Sports Cafe - Batal Ahmed St,builders.corporate.caravan,,30.053589,31.20565
Sports Cafe - Batal Ahmed St,uniforms.nightfall.spires,,30.053669,31.205774
St Antony Church - Zahraa Al Maadi,dumpling.trying.excellent,,29.969433,31.324057
St Antony Church - Zahraa Al Maadi,simulations.dragons.toasters,,29.969618,31.324062
State Council - Dokki,hires.gallons.roadblock,,30.036283,31.218552
State Council - Dokki,snowballs.koala.plank,,30.036324,31.218414
Street 10 Steps - Ring Road,aliens.tortoises.sound,,30.106262,31.20296
Street 10 Steps - Ring Road,void.staples.something,,30.106283,31.202766
Street 29 - Al Hamd Square,pines.plea.tonal,,29.99985,31.422531
Sudan Street - Lebanon Square,fulfilled.doctors.hidden,,30.059399,31.189949
Sudan Street - Lebanon Square,squabbles.outsiders.wrenching,,30.059406,31.19004
Suez Bridge,double.flushes.mouths,,30.080288,31.435501
Suez Bridge - Ring Road,vented.rebounds.dupe,,30.0802,31.435741
Suez Canal Bank - Shobra,parked.inhales.vibes,,30.073187,31.244999
Sultan Abou Al Ela Mosque - Maspero,garlic.collects.motel,,30.056337,31.230844
Sultan Abou Al Ela Mosque - Maspero,hopes.myth.hypocrite,,30.056225,31.230804
Sun City Mall - Sheraton,slip.bloomers.frantic,,30.103882,31.384287
Sun City Mall - Sheraton,sweetened.melts.taxi,,30.103954,31.384144
Sun Mall,minder.scratches.opened,,30.050423,31.392763
Swan Lake Compound - 5th Settlement,friends.serenade.speeches,,30.054367,31.442087
Syndicate Of Commercial Professions - Abbasseya,pyramid.womanly.forehand,,30.066784,31.294334
Syndicate Of Commercial Professions - Abbasseya,sliding.lentil.revamping,,30.066582,31.294127
Taaqa Gas Station - 15th of May,defenders.scar.headlines,,29.834192,31.356184
Taaqa Gas Station - 15th of May,partied.exactly.clenching,,29.834278,31.35593
Taawon Gas Station - Al Mataryaa,baseballs.plotting.anyone,Tawen El Mataryaa 'Eastbound',30.123241,31.301365
Taawon Gas Station - Al Mataryaa,pave.glitz.brittle,,30.122766,31.300568
Taawon Gas Station - Al Mataryaa,print.strongman.calculate,,30.122843,31.300657
Tabarak - Omar Al Mokhtar St,costs.envelope.voltages,,30.122538,31.297058
Tabarak - Omar Al Mokhtar St,wheat.jugs.gifted,,30.121536,31.297302
Tabarak Children's Hospital - Nasr City,available.exhaled.envy,,30.046406,31.32845
Tabarak Children's Hospital - Nasr City,bakers.rooms.wobbling,,30.046604,31.328613
Tahrir Square,fists.jazz.turned,,30.044655,31.236061
Tahrir Square,trudges.hers.nags,,30.044035,31.235695
Taki - Al Waili,addicted.roses.yummy,,30.059298,31.276402
Taki - Al Waili,optimists.waggled.sensible,,30.059246,31.276339
Talaat Harb Mall - Downtown,doing.leathers.expiring,,30.050495,31.24048
Talaat Harb Square - Downtown,terminal.elevates.vaccines,,30.047781,31.23868
Taqa Gas Station - Badrasheen,barbarian.birdcage.assess,,29.859373,31.27863
Taqa Gas Station - Badrasheen,competent.dish.breaches,,29.859903,31.27911
TechnoTex Clothes Co - 15th of May,hands.perusing.weeps,,29.817312,31.358702
TechnoTex Clothes Co - 15th of May,when.sandpaper.snacks,,29.817469,31.35875
Technological Center - Maadi,amicably.economies.ooze,,29.964636,31.26094
Technological Center - Maadi,gashes.insolvent.defaults,,29.964628,31.260841
Telecom Egypt Central - Almaza,texts.stopped.tourist,,30.086441,31.334944
Telecom Egypt Central - Almaza,tomorrow.cosmetic.screen,,30.08662,31.335049
Teraat Al Gabal Street,fuzz.dabbled.soccer,,30.101852,31.3057
Teraat Al Gabal Street,rave.package.cutback,,30.101713,31.305626
Tereat Al Gabal St - Al Horeyya St,romance.directive.special,,30.113407,31.31206
Tharwat Bridge - Saft El Laban,announced.accusing.king,,30.02756,31.201534
Tharwat Bridge - Saft El Laban,enjoy.renders.chromatic,,30.0274,31.201654
Tharwat Bridge - Saft El Laban,garden.party.florists,,30.027296,31.201706
Tharwat Bridge - Saft El Laban,respects.surviving.lecturing,,30.0275,31.201649
The Continental School - Obour,concluded.nipping.audio,The Continental School - Obour 'Southbound',30.195063,31.460909
The Continental School - Obour,easily.rush.look,The Continental School - Obour 'Northbound',30.195194,31.46101
The Egyptian Lawyers Association,rejoiced.hound.tins,,30.052374,31.237604
The English School - Abu Bakr,blackbird.rescue.villager,,30.101187,31.333122
The English School - Abu Bakr,padlock.deranged.caskets,,30.10089,31.332691
The Good Shepherd Hospital,conjured.retire.overpaid,,30.076738,31.245153
The Good Shepherd Nuns,flattens.bloomers.firework,,30.078138,31.24519
The Platform Maadi,keener.imperious.increased,The Platform Maadi 'Southbound',29.974354,31.234755
The Platform Maadi,system.tumblers.slot,The Platform Maadi 'Northbound',29.974386,31.23488
Three Brothers Supermarket - Manial,greet.chip.jobs,,30.015821,31.22227
Three Brothers Supermarket - Manial,ounce.shoelaces.cove,,30.015936,31.222256
Three Pyramids Hotel,fashion.vowel.bids,,30.000565,31.178139
Three Pyramids Hotel,outfitter.view.lows,,30.000706,31.178076
Tiles Workshop - Berak Al Khayam Rd,pedicure.shins.postings,,30.056458,31.160341
Tolip - Zahraa Nasr City,avid.cookies.owned,,30.051916,31.404387
Tolip - Zahraa Nasr City,replayed.arose.interlude,,30.051628,31.404638
Tolip Plaza,snips.scenes.agreement,Tolip Plaza Eastbound,30.025322,31.46561
Tolip Plaza - 5th Settlement,driving.snowy.centrally,Tulip Plaza Westbound,30.025606,31.465607
Toman Bay St - Heliopolis,recruited.sank.tweed,,30.103365,31.314732
Tomwa - Abu Al Nomros,knowledge.sporting.political,,29.932976,31.255991
Tomwa - Abu Al Nomros,taskbar.porch.surfaces,,29.933035,31.256063
Tora Prison - Autostrad,conveying.pelting.short,,29.947107,31.28702
Tora Prison - Autostrad,reason.according.chucked,,29.946606,31.287176
Tora Steps - Autostrad,asserts.sings.shame,Tora Steps Autostrad 'Northbound',29.95158,31.287321
Tora Steps - Autostrad,safe.gong.backdrop,Tora Steps Autostrad 'Southbound',29.951576,31.287125
Total Gas Station - Autostrad,monks.education.degree,,29.982748,31.289143
Total Gas Station - Autostrad,required.scored.crouches,,29.982758,31.28943
Total Gas Station - Autostrad,slim.dwarves.motivates,,29.982737,31.289026
Total Gas Station - Autostrad,zaps.lamp.arise,,29.982756,31.289314
Total Gas Station - Autostrad Zahraa Al Maadi,fled.parked.displays,,29.95854,31.28749
Total Gas Station - Autostrad Zahraa Al Maadi,thousands.submit.costs,,29.95855,31.28734
Total Gas Station - Haram Marioteya,lakeside.replayed.making,,29.99099,31.15231
Total Gas Station - Haram Marioteya,often.ambushes.coats,,29.99085,31.152378
Total Gas Station - Kattameya Entrance,appointed.debating.activism,,29.983797,31.366215
Total Gas Station - Kattameya Entrance,encrusted.warping.flopping,,29.983522,31.366636
Total Gas Station - Kattameya Entrance,splints.received.activism,,29.983631,31.366325
Total Gas Station Bassous - Ring Road,erupt.masking.fluid,,30.140024,31.206123
Total Gas Station Bassous - Ring Road,snowy.thing.leaky,,30.139954,31.206324
Traffic Department Ain El Sira,camper.straying.decrease,,30.014812,31.246943
Traffic Department Ain El Sira,paths.consoles.decompose,,30.014887,31.246954
Triumph Hotel,learning.gears.overjoyed,Triumph Hotel 'Eastbound',30.086702,31.306011
Triumph Square,hers.factory.saved,,30.100857,31.343473
Triumph Square,royally.tailors.sheds,,30.100933,31.34302
Tuktuk Stop - 15th of May Bridge - Shubra Al Kheima,immediate.transcribes.this,,30.121626,31.250525
Tuktuk Stop - 15th of May Bridge - Shubra Al Kheima,pumpkin.switched.norms,,30.12162,31.25039
Twin Plaza,composes.operated.vaulting,,30.052885,31.43201
Unknown Soldier (Al Gondi Al Maghool),language.weary.dissolves,,30.064703,31.314491
Unknown Soldier (Al Gondi Al Maghool),living.thudding.weeks,,30.064566,31.314634
Vehicles Administration - Salah Salem St,wizards.food.legroom,,30.061493,31.284578
Vehicles Administration - Salah Salem St,worked.outhouse.moment,,30.061562,31.284456
Versay - Waili,apprehend.backswing.guideline,,30.10375,31.280584
Versay - Waili,fairy.sharpness.quaking,,30.103537,31.28065
Victoria - Ahmed Helmy St,hides.foreheads.buggy,,30.086847,31.255991
Victoria - Ahmed Helmy St,tonic.slopes.greyhound,,30.08715,31.25587
Vitrac Square - 5th Settlement,coil.amount.pirates,,30.011385,31.41438
Vitrac Square - 5th Settlement,guidebook.besotted.pelting,,30.011192,31.413826
Vodafone - Ahmed Al Zomor,bars.kilt.shield,,30.04863,31.374516
Vodafone - Ahmed Al Zomor,puddings.treetop.cringe,,30.04843,31.374554
Vodafone - Awsim,hogs.voucher.lamplight,,30.122011,31.13932
Vodafone - Imbaba,item.retract.adjuster,,30.072039,31.209364
Vodafone - Zahraa Al Maadi,invite.cookery.reclined,,29.961956,31.303055
Vodafone - Zahraa Al Maadi,unsettled.secretly.dote,,29.961712,31.30303
Wadi Al Nile Hospital - Matareya St,handicaps.deriving.hides,,30.09909,31.299648
Wadi Al Nile Hospital - Matareya St,tint.repay.woof,,30.099112,31.299528
Wadi Al Nile St - Nile Courniche,mainland.sensibly.lame,,29.95426,31.25448
Wadi Al Nile St - Nile Courniche,weeks.purifier.glee,,29.954168,31.25443
Wadi Degla Sporting Club - Heliopolis,movements.gilding.vintages,,30.095068,31.382782
Wadi Degla Sporting Club - New Cairo,noble.storming.jogged,,30.052553,31.426704
Wadi Degla Sporting Club - New Cairo,punch.formally.dignitary,,30.052345,31.42676
Wadi Hof Metro Station,mankind.shark.broadens,,29.879276,31.314032
Wadi Hof Metro Station,plant.bleaching.coaching,,29.878838,31.313166
Wadi Hof Metro Station,talkative.secretly.sofa,,29.879316,31.314125
Waei Islami Hospital - Mostorod,lads.deduced.each,,30.120516,31.285673
Waei Islami Hospital - Mostorod,operating.smashes.hired,,30.12037,31.285807
Waei Islami Hospital - Mostorod,summaries.agreed.nicely,,30.120123,31.286963
Waei Islami Hospital - Mostorod,wanting.beginning.feuds,,30.119967,31.28705
Waha Garage - 10th District - Nasr City,invent.flop.pretty,,30.040413,31.37895
Waha Garage - 10th District - Nasr City,vouch.rehearsed.union,,30.040493,31.378796
Warraq Al Arab Bus Station,abacus.grace.elbowing,,30.095581,31.214863
Warraq Al Arab Bus Station,lectures.outbound.tutored,,30.095724,31.21479
Wataneya Gas Station - Al Nasr Company,unhappily.unfair.gazette,,29.869751,31.305399
Wataneya Gas Station - Autostrad Maadi,aimlessly.bribing.wasp,,29.975727,31.290035
Wataneya Gas Station - Autostrad Maadi,quail.pampered.unwraps,,29.975721,31.289837
Wataneya Gas Station - Autostrad Maadi,scale.dislikes.crinkled,,29.975735,31.290129
Wataneya Gas Station - Ring Road - Kattameya,curable.bullion.diplomas,,29.98684,31.30891
Wataneya Gas Station - Ring Road - Kattameya,thumb.finally.alarmed,,29.98652,31.309383
Water Plant 1 - Asmarat,prayers.tolerable.clumped,,29.998314,31.33347
Water Plant 2 - Asmarat,bandaged.truffles.napkins,,29.997883,31.33205
Water Plant 2 - Asmarat,hardening.blend.cake,,29.997904,31.331915
Waterway Compound,like.maddening.cornfield,Waterway Northbound,30.041355,31.47503
Wax Museum - Helwan,fights.inkjet.candy,Wax Museum in Helwan 'Southbound',29.85955,31.32625
Wax Museum - Helwan,fortunate.coupler.novels,Wax Museum in Helwan 'Northbound',29.860022,31.326483
West Golf,cages.fade.blemishes,,29.999386,31.400913
West Golf,suits.thrones.hamper,,29.999191,31.40061
White Road - Rind Road,brew.selection.stone,,30.056694,31.176073
White Road - Rind Road,plotting.sweeper.insulated,,30.05666,31.1759
Windrose Academy,alike.leans.walking,,29.979734,31.351715
Windrose Academy,uniform.neatly.guideline,,29.979536,31.351593
Wonder Land Mall - Abbas Al Akkad,louder.hurray.relief,,30.048239,31.33923
Wonder Land Mall - Abbas Al Akkad,nods.coach.headrest,,30.04826,31.339441
Yousef Abbas St - Autostrad,choppy.unites.ramps,,30.066807,31.320755
Yousef Abbas St - Autostrad,tuned.ratty.runways,,30.06698,31.319702
Youth Housing - Al Shorouq,sushi.smooth.landlady,,30.16558,31.6475
Youth Housing - Al Shorouq,witty.compacts.emerald,,30.165722,31.64695
Zahraa,deriving.engrossed.monitors,,29.99813,31.228846
Zahraa Ain Shams Bus Station,daredevil.airstrip.powers,,30.137196,31.337414
Zahraa Ain Shams Bus Station,skidding.plea.vitals,,30.136753,31.337631
Zahraa Al Maadi Tunnel - Start,showed.lunching.elevated,,29.961538,31.289337
Zahraa Exit - Ring Road,dusts.lighters.shows,,29.991402,31.234106
Zahraa Exit - Ring Road,exist.skis.loom,,29.991581,31.234047
Zahraa Madinet Nasr,fine.sleep.initiates,,30.054674,31.413006
Zahraa Madinet Nasr,newsprint.forgets.supplier,,30.05165,31.401678
Zahraa Madinet Nasr,purifier.reform.foiled,,30.05629,31.413527
Zahraa Madinet Nasr,wasps.fork.contact,,30.050953,31.406143
Zahraa Metro Station,human.opens.costumed,,29.995083,31.231228
Zahraa Metro Station,vowed.wolf.mergers,,29.995024,31.231157
Zahraa Nasr City,brushing.fittingly.envy,,30.051455,31.399925
Zahraa Nasr City,heartburn.hostels.aura,,30.051239,31.399977
Zaker Hussein - Al Tayaran,bricks.scripted.garages,,30.043505,31.329123
Zaker Hussein - Al Tayaran,grumble.forced.joys,,30.043732,31.32926
Zaker Hussein - Al Tayaran,prime.bypassed.watches,,30.043564,31.32929
Zaker Hussein - Al Tayaran,thinking.unfilled.stretch,,30.043745,31.329067
Zamalek Sporting Club,cutaway.abandons.stung,,30.060734,31.205017
Zamzam Specialized Hospital - Om Bayoumi,grins.brief.duos,,30.139488,31.250868
Zamzam Specialized Hospital - Om Bayoumi,originals.brilliant.certified,,30.139528,31.250591
Zayed 2000,analogy.refusals.shadowed,Zayed 2000 Me7war 'Westbound',30.019852,31.008379
Zohoor City - Basateen Rd,convert.busy.hourglass,,29.993923,31.266552
